{
"type": "FeatureCollection",
"crs": { "type": "name", "properties": { "name": "urn:ogc:def:crs:OGC:1.3:CRS84" } },
"features": [
{ "type": "Feature", "properties": { "data_time": "2024-02-06 18:31:59+08:00", "name": "仁杏藥局", "addr": "臺北市中正區汀州路一段３８４號", "wkb_geometry": "POINT (121.5135504 25.02623632)", "district": "中正區", "phone": "0223013621", "total_beds": 0.0 }, "geometry": { "type": "Point", "coordinates": [ 121.5135504, 25.02623632 ] } },
{ "type": "Feature", "properties": { "data_time": "2024-02-06 18:31:59+08:00", "name": "永興藥局", "addr": "臺北市中正區汀州路一段９２巷２８號", "wkb_geometry": "POINT (121.5067622 25.02999357)", "district": "中正區", "phone": "0223050986", "total_beds": 0.0 }, "geometry": { "type": "Point", "coordinates": [ 121.5067622, 25.02999357 ] } },
{ "type": "Feature", "properties": { "data_time": "2024-02-06 18:31:59+08:00", "name": "華大藥局", "addr": "臺北市中正區金門街８號", "wkb_geometry": "POINT (121.5243315 25.02275147)", "district": "中正區", "phone": "0223682425", "total_beds": 0.0 }, "geometry": { "type": "Point", "coordinates": [ 121.5243315, 25.02275147 ] } },
{ "type": "Feature", "properties": { "data_time": "2024-02-06 18:31:59+08:00", "name": "怡誠藥局", "addr": "臺北市中正區汀州路二段二一二號", "wkb_geometry": "POINT (121.5237191 25.02236086)", "district": "中正區", "phone": "23625100", "total_beds": 0.0 }, "geometry": { "type": "Point", "coordinates": [ 121.5237191, 25.02236086 ] } },
{ "type": "Feature", "properties": { "data_time": "2024-02-06 18:31:59+08:00", "name": "日生大藥局", "addr": "臺北市中正區汀州路一段５３號１樓", "wkb_geometry": "POINT (121.5076476 25.03025745)", "district": "中正區", "phone": "0223031393", "total_beds": 0.0 }, "geometry": { "type": "Point", "coordinates": [ 121.5076476, 25.03025745 ] } },
{ "type": "Feature", "properties": { "data_time": "2024-02-06 18:31:59+08:00", "name": "三元藥局", "addr": "臺北市中正區三元街１５８號", "wkb_geometry": "POINT (121.5108721 25.02800107)", "district": "中正區", "phone": "0223052839", "total_beds": 0.0 }, "geometry": { "type": "Point", "coordinates": [ 121.5108721, 25.02800107 ] } },
{ "type": "Feature", "properties": { "data_time": "2024-02-06 18:31:59+08:00", "name": "大安藥局", "addr": "臺北市中正區新生南路1段56巷2號(1樓)", "wkb_geometry": "POINT (121.5325687 25.0411374)", "district": "中正區", "phone": "0223213186", "total_beds": 0.0 }, "geometry": { "type": "Point", "coordinates": [ 121.5325687, 25.0411374 ] } },
{ "type": "Feature", "properties": { "data_time": "2024-02-06 18:31:59+08:00", "name": "上海聯合藥局", "addr": "臺北市中正區衡陽路３２號１樓", "wkb_geometry": "POINT (121.5126292 25.04220631)", "district": "中正區", "phone": "0223714797", "total_beds": 0.0 }, "geometry": { "type": "Point", "coordinates": [ 121.5126292, 25.04220631 ] } },
{ "type": "Feature", "properties": { "data_time": "2024-02-06 18:31:59+08:00", "name": "中心藥局", "addr": "臺北市中正區汀州路三段１２１號", "wkb_geometry": "POINT (121.5302985 25.01654511)", "district": "中正區", "phone": "0223689889", "total_beds": 0.0 }, "geometry": { "type": "Point", "coordinates": [ 121.5302985, 25.01654511 ] } },
{ "type": "Feature", "properties": { "data_time": "2024-02-06 18:31:59+08:00", "name": "楊藥局", "addr": "臺北市中正區臨沂街２９巷１８號", "wkb_geometry": "POINT (121.530796 25.03984849)", "district": "中正區", "phone": "0223414449", "total_beds": 0.0 }, "geometry": { "type": "Point", "coordinates": [ 121.530796, 25.03984849 ] } },
{ "type": "Feature", "properties": { "data_time": "2024-02-06 18:31:59+08:00", "name": "和康大藥局", "addr": "臺北市中正區忠孝東路一段７８號１樓", "wkb_geometry": "POINT (121.5239625 25.04446127)", "district": "中正區", "phone": "223958181", "total_beds": 0.0 }, "geometry": { "type": "Point", "coordinates": [ 121.5239625, 25.04446127 ] } },
{ "type": "Feature", "properties": { "data_time": "2024-02-06 18:31:59+08:00", "name": "古亭藥局", "addr": "臺北市中正區汀州路三段１１７號", "wkb_geometry": "POINT (121.5301226 25.01666815)", "district": "中正區", "phone": "-", "total_beds": 0.0 }, "geometry": { "type": "Point", "coordinates": [ 121.5301226, 25.01666815 ] } },
{ "type": "Feature", "properties": { "data_time": "2024-02-06 18:31:59+08:00", "name": "新獻安藥局", "addr": "臺北市中正區羅斯福路一段１５號", "wkb_geometry": "POINT (121.5182188 25.03316149)", "district": "中正區", "phone": "0223519891", "total_beds": 0.0 }, "geometry": { "type": "Point", "coordinates": [ 121.5182188, 25.03316149 ] } },
{ "type": "Feature", "properties": { "data_time": "2024-02-06 18:31:59+08:00", "name": "國杏藥師示範藥局", "addr": "臺北市中正區延平南路１７１巷３號", "wkb_geometry": "POINT (121.5078466 25.0348694)", "district": "中正區", "phone": "0223811322", "total_beds": 0.0 }, "geometry": { "type": "Point", "coordinates": [ 121.5078466, 25.0348694 ] } },
{ "type": "Feature", "properties": { "data_time": "2024-02-06 18:31:59+08:00", "name": "東華藥局", "addr": "臺北市中正區汀州路三段一一三號", "wkb_geometry": "POINT (121.5300303 25.01673271)", "district": "中正區", "phone": "0223640852、0223640852、0223640582", "total_beds": 0.0 }, "geometry": { "type": "Point", "coordinates": [ 121.5300303, 25.01673271 ] } },
{ "type": "Feature", "properties": { "data_time": "2024-02-06 18:31:59+08:00", "name": "連雲藥局", "addr": "臺北市中正區連雲街79號", "wkb_geometry": "POINT (121.5301606 25.03436039)", "district": "中正區", "phone": "223410504", "total_beds": 0.0 }, "geometry": { "type": "Point", "coordinates": [ 121.5301606, 25.03436039 ] } },
{ "type": "Feature", "properties": { "data_time": "2024-02-06 18:31:59+08:00", "name": "合泰大藥局", "addr": "臺北市中正區衡陽路26號", "wkb_geometry": "POINT (121.512863 25.04220736)", "district": "中正區", "phone": "0223899977", "total_beds": 0.0 }, "geometry": { "type": "Point", "coordinates": [ 121.512863, 25.04220736 ] } },
{ "type": "Feature", "properties": { "data_time": "2024-02-06 18:31:59+08:00", "name": "吉星藥局", "addr": "臺北市中正區襄陽路１９號１樓", "wkb_geometry": "POINT (121.5153922 25.04349251)", "district": "中正區", "phone": "23117779", "total_beds": 0.0 }, "geometry": { "type": "Point", "coordinates": [ 121.5153922, 25.04349251 ] } },
{ "type": "Feature", "properties": { "data_time": "2024-02-06 18:31:59+08:00", "name": "全民藥局", "addr": "臺北市中正區廈門街八十七號", "wkb_geometry": "POINT (121.5174974 25.02441116)", "district": "中正區", "phone": "0223695759", "total_beds": 0.0 }, "geometry": { "type": "Point", "coordinates": [ 121.5174974, 25.02441116 ] } },
{ "type": "Feature", "properties": { "data_time": "2024-02-06 18:31:59+08:00", "name": "和平藥局", "addr": "臺北市中正區中華路二段四十三號", "wkb_geometry": "POINT (121.5063729 25.03508199)", "district": "中正區", "phone": "23755303", "total_beds": 0.0 }, "geometry": { "type": "Point", "coordinates": [ 121.5063729, 25.03508199 ] } },
{ "type": "Feature", "properties": { "data_time": "2024-02-06 18:31:59+08:00", "name": "丞良藥局", "addr": "臺北市中正區南昌路一段７８號地下一樓", "wkb_geometry": "POINT (121.517267 25.030983)", "district": "中正區", "phone": "33938868", "total_beds": 0.0 }, "geometry": { "type": "Point", "coordinates": [ 121.517267, 25.030983 ] } },
{ "type": "Feature", "properties": { "data_time": "2024-02-06 18:31:59+08:00", "name": "慶安藥局", "addr": "臺北市中正區徐州路26號", "wkb_geometry": "POINT (121.5234096 25.04061204)", "district": "中正區", "phone": "223582385", "total_beds": 0.0 }, "geometry": { "type": "Point", "coordinates": [ 121.5234096, 25.04061204 ] } },
{ "type": "Feature", "properties": { "data_time": "2024-02-06 18:31:59+08:00", "name": "達昌藥局", "addr": "臺北市中正區汀州路一段207號", "wkb_geometry": "POINT (121.5116217 25.0269163)", "district": "中正區", "phone": "23390109", "total_beds": 0.0 }, "geometry": { "type": "Point", "coordinates": [ 121.5116217, 25.0269163 ] } },
{ "type": "Feature", "properties": { "data_time": "2024-02-06 18:31:59+08:00", "name": "大愛生活藥局", "addr": "臺北市中正區汀州路二段232號", "wkb_geometry": "POINT (121.5242627 25.02189463)", "district": "中正區", "phone": "223661155", "total_beds": 0.0 }, "geometry": { "type": "Point", "coordinates": [ 121.5242627, 25.02189463 ] } },
{ "type": "Feature", "properties": { "data_time": "2024-02-06 18:31:59+08:00", "name": "台醫藥局", "addr": "臺北市中正區公園路30巷4號", "wkb_geometry": "POINT (121.5165555 25.04416104)", "district": "中正區", "phone": "23141202", "total_beds": 0.0 }, "geometry": { "type": "Point", "coordinates": [ 121.5165555, 25.04416104 ] } },
{ "type": "Feature", "properties": { "data_time": "2024-02-06 18:31:59+08:00", "name": "佑康大藥局", "addr": "臺北市中正區汀州路2段115號1樓", "wkb_geometry": "POINT (121.5189322 25.02520581)", "district": "中正區", "phone": "23683602", "total_beds": 0.0 }, "geometry": { "type": "Point", "coordinates": [ 121.5189322, 25.02520581 ] } },
{ "type": "Feature", "properties": { "data_time": "2024-02-06 18:31:59+08:00", "name": "佳和藥局", "addr": "臺北市中正區黎明里公園路30號", "wkb_geometry": "POINT (121.5168566 25.0444824)", "district": "中正區", "phone": "-", "total_beds": 0.0 }, "geometry": { "type": "Point", "coordinates": [ 121.5168566, 25.0444824 ] } },
{ "type": "Feature", "properties": { "data_time": "2024-02-06 18:31:59+08:00", "name": "正康藥局", "addr": "臺北市中正區漢口街1段22號", "wkb_geometry": "POINT (121.5142319 25.04507378)", "district": "中正區", "phone": "23712831", "total_beds": 0.0 }, "geometry": { "type": "Point", "coordinates": [ 121.5142319, 25.04507378 ] } },
{ "type": "Feature", "properties": { "data_time": "2024-02-06 18:31:59+08:00", "name": "進達健保藥局", "addr": "臺北市中正區中華路二段453號", "wkb_geometry": "POINT (121.5096102 25.02490113)", "district": "中正區", "phone": "23039829", "total_beds": 0.0 }, "geometry": { "type": "Point", "coordinates": [ 121.5096102, 25.02490113 ] } },
{ "type": "Feature", "properties": { "data_time": "2024-02-06 18:31:59+08:00", "name": "活力健康藥妝藥局", "addr": "臺北市中正區中華路二段315巷1號", "wkb_geometry": "POINT (121.5061962 25.02794934)", "district": "中正區", "phone": "0982757037、23392625", "total_beds": 0.0 }, "geometry": { "type": "Point", "coordinates": [ 121.5061962, 25.02794934 ] } },
{ "type": "Feature", "properties": { "data_time": "2024-02-06 18:31:59+08:00", "name": "信康藥局", "addr": "臺北市中正區南昌路一段143號", "wkb_geometry": "POINT (121.5185922 25.0295324)", "district": "中正區", "phone": "23961979", "total_beds": 0.0 }, "geometry": { "type": "Point", "coordinates": [ 121.5185922, 25.0295324 ] } },
{ "type": "Feature", "properties": { "data_time": "2024-02-06 18:31:59+08:00", "name": "保德中華藥局", "addr": "臺北市中正區中華路二段159號", "wkb_geometry": "POINT (121.5042504 25.03101283)", "district": "中正區", "phone": "223027720", "total_beds": 0.0 }, "geometry": { "type": "Point", "coordinates": [ 121.5042504, 25.03101283 ] } },
{ "type": "Feature", "properties": { "data_time": "2024-02-06 18:31:59+08:00", "name": "71恩典藥局", "addr": "臺北市中正區信義路二段71號", "wkb_geometry": "POINT (121.5263958 25.034666)", "district": "中正區", "phone": "23223371", "total_beds": 0.0 }, "geometry": { "type": "Point", "coordinates": [ 121.5263958, 25.034666 ] } },
{ "type": "Feature", "properties": { "data_time": "2024-02-06 18:31:59+08:00", "name": "豐仁藥局", "addr": "臺北市中正區寧波西街161號", "wkb_geometry": "POINT (121.5109466 25.02735594)", "district": "中正區", "phone": "223033908", "total_beds": 0.0 }, "geometry": { "type": "Point", "coordinates": [ 121.5109466, 25.02735594 ] } },
{ "type": "Feature", "properties": { "data_time": "2024-02-06 18:31:59+08:00", "name": "立赫健保藥局", "addr": "臺北市中正區新生南路一段16之2號", "wkb_geometry": "POINT (121.5326126 25.04322641)", "district": "中正區", "phone": "233223231", "total_beds": 0.0 }, "geometry": { "type": "Point", "coordinates": [ 121.5326126, 25.04322641 ] } },
{ "type": "Feature", "properties": { "data_time": "2024-02-06 18:31:59+08:00", "name": "宏越藥局", "addr": "臺北市中正區中華路2段319號1樓", "wkb_geometry": "POINT (121.506273 25.02782978)", "district": "中正區", "phone": "23050880", "total_beds": 0.0 }, "geometry": { "type": "Point", "coordinates": [ 121.506273, 25.02782978 ] } },
{ "type": "Feature", "properties": { "data_time": "2024-02-06 18:31:59+08:00", "name": "大盛藥局", "addr": "臺北市中正區中華路一段21巷16號", "wkb_geometry": "POINT (121.5105356 25.04645058)", "district": "中正區", "phone": "0223316807", "total_beds": 0.0 }, "geometry": { "type": "Point", "coordinates": [ 121.5105356, 25.04645058 ] } },
{ "type": "Feature", "properties": { "data_time": "2024-02-06 18:31:59+08:00", "name": "北車維康藥局", "addr": "臺北市中正區青島西路11號", "wkb_geometry": "POINT (121.5177666 25.04498758)", "district": "中正區", "phone": "223613509", "total_beds": 0.0 }, "geometry": { "type": "Point", "coordinates": [ 121.5177666, 25.04498758 ] } },
{ "type": "Feature", "properties": { "data_time": "2024-02-06 18:31:59+08:00", "name": "和眾藥局", "addr": "臺北市中正區忠孝西路一段6號", "wkb_geometry": "POINT (121.5180284 25.04582575)", "district": "中正區", "phone": "223911393", "total_beds": 0.0 }, "geometry": { "type": "Point", "coordinates": [ 121.5180284, 25.04582575 ] } },
{ "type": "Feature", "properties": { "data_time": "2024-02-06 18:31:59+08:00", "name": "躍獅南門藥局", "addr": "臺北市中正區中華路二段39巷10號", "wkb_geometry": "POINT (121.5073633 25.03483495)", "district": "中正區", "phone": "223141111", "total_beds": 0.0 }, "geometry": { "type": "Point", "coordinates": [ 121.5073633, 25.03483495 ] } },
{ "type": "Feature", "properties": { "data_time": "2024-02-06 18:31:59+08:00", "name": "桐心藥局", "addr": "臺北市中正區金華街18之6號1樓", "wkb_geometry": "POINT (121.5202152 25.03175306)", "district": "中正區", "phone": "223581663", "total_beds": 0.0 }, "geometry": { "type": "Point", "coordinates": [ 121.5202152, 25.03175306 ] } },
{ "type": "Feature", "properties": { "data_time": "2024-02-06 18:31:59+08:00", "name": "珍忻藥局", "addr": "臺北市中正區南昌路一段65號", "wkb_geometry": "POINT (121.517452 25.03106799)", "district": "中正區", "phone": "223965115", "total_beds": 0.0 }, "geometry": { "type": "Point", "coordinates": [ 121.517452, 25.03106799 ] } },
{ "type": "Feature", "properties": { "data_time": "2024-02-06 18:31:59+08:00", "name": "博昱連雲藥局", "addr": "臺北市中正區連雲街72號、72之1號", "wkb_geometry": "POINT (121.5299712 25.03454651)", "district": "中正區", "phone": "223581898", "total_beds": 0.0 }, "geometry": { "type": "Point", "coordinates": [ 121.5299712, 25.03454651 ] } },
{ "type": "Feature", "properties": { "data_time": "2024-02-06 18:31:59+08:00", "name": "長頸鹿藥師藥局", "addr": "臺北市中正區南昌路一段132號", "wkb_geometry": "POINT (121.5183461 25.02954592)", "district": "中正區", "phone": "0223962120、0921231045", "total_beds": 0.0 }, "geometry": { "type": "Point", "coordinates": [ 121.5183461, 25.02954592 ] } },
{ "type": "Feature", "properties": { "data_time": "2024-02-06 18:31:59+08:00", "name": "鈞安藥局", "addr": "臺北市中正區中華路2段425號1樓", "wkb_geometry": "POINT (121.5088598 25.02539709)", "district": "中正區", "phone": "223098282", "total_beds": 0.0 }, "geometry": { "type": "Point", "coordinates": [ 121.5088598, 25.02539709 ] } },
{ "type": "Feature", "properties": { "data_time": "2024-02-06 18:31:59+08:00", "name": "躍獅東門藥局", "addr": "臺北市中正區金山南路1段108之1號(1樓)", "wkb_geometry": "POINT (121.5198716 25.0421407)", "district": "中正區", "phone": "223920339", "total_beds": 0.0 }, "geometry": { "type": "Point", "coordinates": [ 121.5198716, 25.0421407 ] } },
{ "type": "Feature", "properties": { "data_time": "2024-02-06 18:31:59+08:00", "name": "康呈安藥局", "addr": "臺北市中正區汀州路2段187號1樓", "wkb_geometry": "POINT (121.5219845 25.02403149)", "district": "中正區", "phone": "223672215", "total_beds": 0.0 }, "geometry": { "type": "Point", "coordinates": [ 121.5219845, 25.02403149 ] } },
{ "type": "Feature", "properties": { "data_time": "2024-02-06 18:31:59+08:00", "name": "立赫景福藥局", "addr": "臺北市中正區公園路28號1樓", "wkb_geometry": "POINT (121.516969 25.04485133)", "district": "中正區", "phone": "23616162", "total_beds": 0.0 }, "geometry": { "type": "Point", "coordinates": [ 121.516969, 25.04485133 ] } },
{ "type": "Feature", "properties": { "data_time": "2024-02-06 18:31:59+08:00", "name": "南昌春天藥局", "addr": "臺北市中正區南昌路1段157號1樓", "wkb_geometry": "POINT (121.5187816 25.0292682)", "district": "中正區", "phone": "223972886", "total_beds": 0.0 }, "geometry": { "type": "Point", "coordinates": [ 121.5187816, 25.0292682 ] } },
{ "type": "Feature", "properties": { "data_time": "2024-02-06 18:31:59+08:00", "name": "汀州藥局", "addr": "臺北市中正區汀州路1段187、189、191號(1樓)", "wkb_geometry": "POINT (121.511146 25.0269395)", "district": "中正區", "phone": "223090705", "total_beds": 0.0 }, "geometry": { "type": "Point", "coordinates": [ 121.511146, 25.0269395 ] } },
{ "type": "Feature", "properties": { "data_time": "2024-02-06 18:31:59+08:00", "name": "中英大藥局", "addr": "臺北市中正區永綏街6號1樓", "wkb_geometry": "POINT (121.5111801 25.04299801)", "district": "中正區", "phone": "223615654", "total_beds": 0.0 }, "geometry": { "type": "Point", "coordinates": [ 121.5111801, 25.04299801 ] } },
{ "type": "Feature", "properties": { "data_time": "2024-02-06 18:31:59+08:00", "name": "子榕藥局", "addr": "臺北市中正區博愛路9號3樓", "wkb_geometry": "POINT (121.5115032 25.04591542)", "district": "中正區", "phone": "23116993", "total_beds": 0.0 }, "geometry": { "type": "Point", "coordinates": [ 121.5115032, 25.04591542 ] } },
{ "type": "Feature", "properties": { "data_time": "2024-02-06 18:31:59+08:00", "name": "愛國藥局", "addr": "臺北市中正區延平南路210號(1樓)", "wkb_geometry": "POINT (121.5074698 25.0347608)", "district": "中正區", "phone": "223826211", "total_beds": 0.0 }, "geometry": { "type": "Point", "coordinates": [ 121.5074698, 25.0347608 ] } },
{ "type": "Feature", "properties": { "data_time": "2024-02-06 18:31:59+08:00", "name": "中力藥局", "addr": "臺北市中正區襄陽路13之5號1樓、15號(1樓)", "wkb_geometry": "POINT (121.5155382 25.04349556)", "district": "中正區", "phone": "23313768", "total_beds": 0.0 }, "geometry": { "type": "Point", "coordinates": [ 121.5155382, 25.04349556 ] } },
{ "type": "Feature", "properties": { "data_time": "2024-02-06 18:31:59+08:00", "name": "專品公園藥局", "addr": "臺北市中正區公園路32號1樓", "wkb_geometry": "POINT (121.516754 25.04410123)", "district": "中正區", "phone": "23142338", "total_beds": 0.0 }, "geometry": { "type": "Point", "coordinates": [ 121.516754, 25.04410123 ] } },
{ "type": "Feature", "properties": { "data_time": "2024-02-06 18:31:59+08:00", "name": "日上藥局", "addr": "臺北市中正區汀州路1段366號1樓、368號1樓", "wkb_geometry": "POINT (121.5131885 25.02632858)", "district": "中正區", "phone": "23378096", "total_beds": 0.0 }, "geometry": { "type": "Point", "coordinates": [ 121.5131885, 25.02632858 ] } },
{ "type": "Feature", "properties": { "data_time": "2024-02-06 18:31:59+08:00", "name": "博醫和平藥局", "addr": "臺北市中正區中華路2段75巷1弄39號1樓", "wkb_geometry": "POINT (121.506759 25.03496529)", "district": "中正區", "phone": "23120053", "total_beds": 0.0 }, "geometry": { "type": "Point", "coordinates": [ 121.506759, 25.03496529 ] } },
{ "type": "Feature", "properties": { "data_time": "2024-02-06 18:31:59+08:00", "name": "臨沂中西藥局", "addr": "臺北市中正區忠孝東路2段134巷26號(1樓)", "wkb_geometry": "POINT (121.5321314 25.0421977)", "district": "中正區", "phone": "0926013526", "total_beds": 0.0 }, "geometry": { "type": "Point", "coordinates": [ 121.5321314, 25.0421977 ] } },
{ "type": "Feature", "properties": { "data_time": "2024-02-06 18:31:59+08:00", "name": "躍獅南寧藥局", "addr": "臺北市中正區南昌路1段81號1樓", "wkb_geometry": "POINT (121.5178122 25.03057386)", "district": "中正區", "phone": "223967072", "total_beds": 0.0 }, "geometry": { "type": "Point", "coordinates": [ 121.5178122, 25.03057386 ] } },
{ "type": "Feature", "properties": { "data_time": "2024-02-06 18:31:59+08:00", "name": "專品南昌藥局", "addr": "臺北市中正區南昌路1段66號1樓", "wkb_geometry": "POINT (121.5171172 25.03120561)", "district": "中正區", "phone": "02 23560069", "total_beds": 0.0 }, "geometry": { "type": "Point", "coordinates": [ 121.5171172, 25.03120561 ] } },
{ "type": "Feature", "properties": { "data_time": "2024-02-06 18:31:59+08:00", "name": "利保肝博愛藥局", "addr": "臺北市中正區博愛路9號1樓", "wkb_geometry": "POINT (121.5115032 25.04591542)", "district": "中正區", "phone": "23123119", "total_beds": 0.0 }, "geometry": { "type": "Point", "coordinates": [ 121.5115032, 25.04591542 ] } },
{ "type": "Feature", "properties": { "data_time": "2024-02-06 18:31:59+08:00", "name": "建祥武昌藥局", "addr": "臺北市中正區武昌街1段29號1樓", "wkb_geometry": "POINT (121.512123 25.04415718)", "district": "中正區", "phone": "23314038", "total_beds": 0.0 }, "geometry": { "type": "Point", "coordinates": [ 121.512123, 25.04415718 ] } },
{ "type": "Feature", "properties": { "data_time": "2024-02-06 18:31:59+08:00", "name": "崇信藥局", "addr": "臺北市中正區齊東街８８號", "wkb_geometry": "POINT (121.5271509 25.04162388)", "district": "中正區", "phone": "0223417557", "total_beds": 0.0 }, "geometry": { "type": "Point", "coordinates": [ 121.5271509, 25.04162388 ] } },
{ "type": "Feature", "properties": { "data_time": "2024-02-06 18:31:59+08:00", "name": "民生藥局", "addr": "臺北市中正區濟南路二段45之1號", "wkb_geometry": "POINT (121.5305404 25.040599)", "district": "中正區", "phone": "0223416470", "total_beds": 0.0 }, "geometry": { "type": "Point", "coordinates": [ 121.5305404, 25.040599 ] } },
{ "type": "Feature", "properties": { "data_time": "2024-02-06 18:31:59+08:00", "name": "新德星中西藥局", "addr": "臺北市中正區信陽街３號１樓", "wkb_geometry": "POINT (121.5168723 25.04469998)", "district": "中正區", "phone": "0223614598", "total_beds": 0.0 }, "geometry": { "type": "Point", "coordinates": [ 121.5168723, 25.04469998 ] } },
{ "type": "Feature", "properties": { "data_time": "2024-02-06 18:31:59+08:00", "name": "東鴻藥局", "addr": "臺北市中正區臨沂街７１巷３號", "wkb_geometry": "POINT (121.5283109 25.0353619)", "district": "中正區", "phone": "0223218648", "total_beds": 0.0 }, "geometry": { "type": "Point", "coordinates": [ 121.5283109, 25.0353619 ] } },
{ "type": "Feature", "properties": { "data_time": "2024-02-06 18:31:59+08:00", "name": "祥全藥局", "addr": "臺北市中正區信義路二段７９巷１５號之８一樓", "wkb_geometry": "POINT (121.5270301 25.0356686)", "district": "中正區", "phone": "0223939339", "total_beds": 0.0 }, "geometry": { "type": "Point", "coordinates": [ 121.5270301, 25.0356686 ] } },
{ "type": "Feature", "properties": { "data_time": "2024-02-06 18:31:59+08:00", "name": "南昌大藥局", "addr": "臺北市中正區南昌路一段８６號一樓", "wkb_geometry": "POINT (121.5173744 25.0308592)", "district": "中正區", "phone": "0223510322", "total_beds": 0.0 }, "geometry": { "type": "Point", "coordinates": [ 121.5173744, 25.0308592 ] } },
{ "type": "Feature", "properties": { "data_time": "2024-02-06 18:31:59+08:00", "name": "新介春藥局", "addr": "臺北市大同區酒泉街１６６號", "wkb_geometry": "POINT (121.5117089 25.07201415)", "district": "大同區", "phone": "0225862265", "total_beds": 0.0 }, "geometry": { "type": "Point", "coordinates": [ 121.5117089, 25.07201415 ] } },
{ "type": "Feature", "properties": { "data_time": "2024-02-06 18:31:59+08:00", "name": "惠眾藥局", "addr": "臺北市大同區重慶北路三段三三五巷四十三號", "wkb_geometry": "POINT (121.5136876 25.070191)", "district": "大同區", "phone": "0225981269", "total_beds": 0.0 }, "geometry": { "type": "Point", "coordinates": [ 121.5136876, 25.070191 ] } },
{ "type": "Feature", "properties": { "data_time": "2024-02-06 18:31:59+08:00", "name": "柯藥局", "addr": "臺北市大同區重慶北路三段３３５巷６號", "wkb_geometry": "POINT (121.5143673 25.0745193)", "district": "大同區", "phone": "0225948515", "total_beds": 0.0 }, "geometry": { "type": "Point", "coordinates": [ 121.5143673, 25.0745193 ] } },
{ "type": "Feature", "properties": { "data_time": "2024-02-06 18:31:59+08:00", "name": "時春藥局", "addr": "臺北市大同區赤峰街４號", "wkb_geometry": "POINT (121.5191148 25.05355692)", "district": "大同區", "phone": "0225597918", "total_beds": 0.0 }, "geometry": { "type": "Point", "coordinates": [ 121.5191148, 25.05355692 ] } },
{ "type": "Feature", "properties": { "data_time": "2024-02-06 18:31:59+08:00", "name": "裕仁藥局", "addr": "臺北市大同區迪化街二段270之1號", "wkb_geometry": "POINT (121.5114585 25.07068401)", "district": "大同區", "phone": "0225910064", "total_beds": 0.0 }, "geometry": { "type": "Point", "coordinates": [ 121.5114585, 25.07068401 ] } },
{ "type": "Feature", "properties": { "data_time": "2024-02-06 18:31:59+08:00", "name": "健康藥局", "addr": "臺北市大同區寧夏路２３號之４", "wkb_geometry": "POINT (121.5151234 25.05512088)", "district": "大同區", "phone": "0225551219", "total_beds": 0.0 }, "geometry": { "type": "Point", "coordinates": [ 121.5151234, 25.05512088 ] } },
{ "type": "Feature", "properties": { "data_time": "2024-02-06 18:31:59+08:00", "name": "泰元藥局", "addr": "臺北市大同區哈密街九十一號", "wkb_geometry": "POINT (121.5146192 25.0730297)", "district": "大同區", "phone": "0225914592", "total_beds": 0.0 }, "geometry": { "type": "Point", "coordinates": [ 121.5146192, 25.0730297 ] } },
{ "type": "Feature", "properties": { "data_time": "2024-02-06 18:31:59+08:00", "name": "正中藥局", "addr": "臺北市大同區民族西路二一三號", "wkb_geometry": "POINT (121.5142206 25.0687427)", "district": "大同區", "phone": "0225976937", "total_beds": 0.0 }, "geometry": { "type": "Point", "coordinates": [ 121.5142206, 25.0687427 ] } },
{ "type": "Feature", "properties": { "data_time": "2024-02-06 18:31:59+08:00", "name": "保慶藥局", "addr": "臺北市大同區保安街21號", "wkb_geometry": "POINT (121.5129438 25.05925826)", "district": "大同區", "phone": "0225538988", "total_beds": 0.0 }, "geometry": { "type": "Point", "coordinates": [ 121.5129438, 25.05925826 ] } },
{ "type": "Feature", "properties": { "data_time": "2024-02-06 18:31:59+08:00", "name": "快安藥局", "addr": "臺北市大同區南京西路282、284號", "wkb_geometry": "POINT (121.514593 25.0534849)", "district": "大同區", "phone": "25561925", "total_beds": 0.0 }, "geometry": { "type": "Point", "coordinates": [ 121.514593, 25.0534849 ] } },
{ "type": "Feature", "properties": { "data_time": "2024-02-06 18:31:59+08:00", "name": "得意藥師藥局", "addr": "臺北市大同區延平北路二段229號", "wkb_geometry": "POINT (121.5114674 25.0602889)", "district": "大同區", "phone": "25534294", "total_beds": 0.0 }, "geometry": { "type": "Point", "coordinates": [ 121.5114674, 25.0602889 ] } },
{ "type": "Feature", "properties": { "data_time": "2024-02-06 18:31:59+08:00", "name": "健康美藥局", "addr": "臺北市大同區民族西路165號", "wkb_geometry": "POINT (121.515522 25.06872156)", "district": "大同區", "phone": "25976707", "total_beds": 0.0 }, "geometry": { "type": "Point", "coordinates": [ 121.515522, 25.06872156 ] } },
{ "type": "Feature", "properties": { "data_time": "2024-02-06 18:31:59+08:00", "name": "宏泰藥師藥局", "addr": "臺北市大同區酒泉街123號1樓", "wkb_geometry": "POINT (121.5146752 25.07212952)", "district": "大同區", "phone": "225957025", "total_beds": 0.0 }, "geometry": { "type": "Point", "coordinates": [ 121.5146752, 25.07212952 ] } },
{ "type": "Feature", "properties": { "data_time": "2024-02-06 18:31:59+08:00", "name": "儷安藥局", "addr": "臺北市大同區錦西街53巷16號", "wkb_geometry": "POINT (121.5158324 25.06065271)", "district": "大同區", "phone": "25578033", "total_beds": 0.0 }, "geometry": { "type": "Point", "coordinates": [ 121.5158324, 25.06065271 ] } },
{ "type": "Feature", "properties": { "data_time": "2024-02-06 18:31:59+08:00", "name": "富康藥局", "addr": "臺北市大同區延平北路二段126號", "wkb_geometry": "POINT (121.5114593 25.05733357)", "district": "大同區", "phone": "0225537782、0937050350", "total_beds": 0.0 }, "geometry": { "type": "Point", "coordinates": [ 121.5114593, 25.05733357 ] } },
{ "type": "Feature", "properties": { "data_time": "2024-02-06 18:31:59+08:00", "name": "佳禾藥局", "addr": "臺北市大同區大龍街262號", "wkb_geometry": "POINT (121.5158326 25.07060943)", "district": "大同區", "phone": "25953806", "total_beds": 0.0 }, "geometry": { "type": "Point", "coordinates": [ 121.5158326, 25.07060943 ] } },
{ "type": "Feature", "properties": { "data_time": "2024-02-06 18:31:59+08:00", "name": "躍獅雙蓮藥局", "addr": "臺北市大同區涼州街4號", "wkb_geometry": "POINT (121.5146778 25.0607761)", "district": "大同區", "phone": "225537551", "total_beds": 0.0 }, "geometry": { "type": "Point", "coordinates": [ 121.5146778, 25.0607761 ] } },
{ "type": "Feature", "properties": { "data_time": "2024-02-06 18:31:59+08:00", "name": "延平新聖安藥局", "addr": "臺北市大同區延平北路三段35號", "wkb_geometry": "POINT (121.5112006 25.06474679)", "district": "大同區", "phone": "225923399", "total_beds": 0.0 }, "geometry": { "type": "Point", "coordinates": [ 121.5112006, 25.06474679 ] } },
{ "type": "Feature", "properties": { "data_time": "2024-02-06 18:31:59+08:00", "name": "旭豐藥局", "addr": "臺北市大同區昌吉街96號", "wkb_geometry": "POINT (121.5151208 25.06582371)", "district": "大同區", "phone": "0225853880、0933801041", "total_beds": 0.0 }, "geometry": { "type": "Point", "coordinates": [ 121.5151208, 25.06582371 ] } },
{ "type": "Feature", "properties": { "data_time": "2024-02-06 18:31:59+08:00", "name": "中興聯合藥局", "addr": "臺北市大同區鄭州路127號(實際營業地址：1樓)", "wkb_geometry": "POINT (121.5108035 25.050385)", "district": "大同區", "phone": "225502952", "total_beds": 0.0 }, "geometry": { "type": "Point", "coordinates": [ 121.5108035, 25.050385 ] } },
{ "type": "Feature", "properties": { "data_time": "2024-02-06 18:31:59+08:00", "name": "躍獅文昌藥局", "addr": "臺北市大同區民生西路108號(實際營業:一層)", "wkb_geometry": "POINT (121.519676 25.05740036)", "district": "大同區", "phone": "25586189", "total_beds": 0.0 }, "geometry": { "type": "Point", "coordinates": [ 121.519676, 25.05740036 ] } },
{ "type": "Feature", "properties": { "data_time": "2024-02-06 18:31:59+08:00", "name": "新聖安藥局", "addr": "臺北市大同區昌吉街130號", "wkb_geometry": "POINT (121.5142818 25.06583938)", "district": "大同區", "phone": "225977877", "total_beds": 0.0 }, "geometry": { "type": "Point", "coordinates": [ 121.5142818, 25.06583938 ] } },
{ "type": "Feature", "properties": { "data_time": "2024-02-06 18:31:59+08:00", "name": "大同民生藥局", "addr": "臺北市大同區民生西路128號(1樓、2樓)及130號(1樓、2樓)", "wkb_geometry": "POINT (121.5191196 25.0573343)", "district": "大同區", "phone": "25558886", "total_beds": 0.0 }, "geometry": { "type": "Point", "coordinates": [ 121.5191196, 25.0573343 ] } },
{ "type": "Feature", "properties": { "data_time": "2024-02-06 18:31:59+08:00", "name": "123宅藥局", "addr": "臺北市大同區鄭州路123號(1樓)", "wkb_geometry": "POINT (121.510881 25.050355)", "district": "大同區", "phone": "0922281812", "total_beds": 0.0 }, "geometry": { "type": "Point", "coordinates": [ 121.510881, 25.050355 ] } },
{ "type": "Feature", "properties": { "data_time": "2024-02-06 18:31:59+08:00", "name": "慶福藥局", "addr": "臺北市大同區南京西路 233巷2號(1樓)  ", "wkb_geometry": "POINT (121.5104049 25.0539876)", "district": "大同區", "phone": "25503628", "total_beds": 0.0 }, "geometry": { "type": "Point", "coordinates": [ 121.5104049, 25.0539876 ] } },
{ "type": "Feature", "properties": { "data_time": "2024-02-06 18:31:59+08:00", "name": "延平藥局", "addr": "臺北市大同區延平北路3段4號1樓", "wkb_geometry": "POINT (121.5110505 25.06343661)", "district": "大同區", "phone": "25986800", "total_beds": 0.0 }, "geometry": { "type": "Point", "coordinates": [ 121.5110505, 25.06343661 ] } },
{ "type": "Feature", "properties": { "data_time": "2024-02-06 18:31:59+08:00", "name": "立赫大龍藥局", "addr": "臺北市大同區大龍街263號(1樓)", "wkb_geometry": "POINT (121.5159775 25.0716541)", "district": "大同區", "phone": "225953233", "total_beds": 0.0 }, "geometry": { "type": "Point", "coordinates": [ 121.5159775, 25.0716541 ] } },
{ "type": "Feature", "properties": { "data_time": "2024-02-06 18:31:59+08:00", "name": "春鄰藥局", "addr": "臺北市大同區華亭街1號(1樓)", "wkb_geometry": "POINT (121.5133706 25.0522164)", "district": "大同區", "phone": "225526289", "total_beds": 0.0 }, "geometry": { "type": "Point", "coordinates": [ 121.5133706, 25.0522164 ] } },
{ "type": "Feature", "properties": { "data_time": "2024-02-06 18:31:59+08:00", "name": "圓保藥局", "addr": "臺北市大同區酒泉街131號(1樓)", "wkb_geometry": "POINT (121.5144821 25.0721497)", "district": "大同區", "phone": "225850045", "total_beds": 0.0 }, "geometry": { "type": "Point", "coordinates": [ 121.5144821, 25.0721497 ] } },
{ "type": "Feature", "properties": { "data_time": "2024-02-06 18:31:59+08:00", "name": "德芳藥局", "addr": "臺北市大同區民生西路91號1樓", "wkb_geometry": "POINT (121.5193694 25.05761803)", "district": "大同區", "phone": "25576869", "total_beds": 0.0 }, "geometry": { "type": "Point", "coordinates": [ 121.5193694, 25.05761803 ] } },
{ "type": "Feature", "properties": { "data_time": "2024-02-06 18:31:59+08:00", "name": "慈仁藥局", "addr": "臺北市大同區歸綏街２６１號１樓", "wkb_geometry": "POINT (121.5101298 25.05832209)", "district": "大同區", "phone": "0225572733", "total_beds": 0.0 }, "geometry": { "type": "Point", "coordinates": [ 121.5101298, 25.05832209 ] } },
{ "type": "Feature", "properties": { "data_time": "2024-02-06 18:31:59+08:00", "name": "三省大藥局", "addr": "臺北市大同區民族西路３０３巷１９號１樓", "wkb_geometry": "POINT (121.510236 25.06926528)", "district": "大同區", "phone": "0225353540", "total_beds": 0.0 }, "geometry": { "type": "Point", "coordinates": [ 121.510236, 25.06926528 ] } },
{ "type": "Feature", "properties": { "data_time": "2024-02-06 18:31:59+08:00", "name": "三銘大藥局", "addr": "臺北市大同區迪化街一段80號", "wkb_geometry": "POINT (121.509909 25.05580837)", "district": "大同區", "phone": "0225583392", "total_beds": 0.0 }, "geometry": { "type": "Point", "coordinates": [ 121.509909, 25.05580837 ] } },
{ "type": "Feature", "properties": { "data_time": "2024-02-06 18:31:59+08:00", "name": "弘仁全民藥局", "addr": "臺北市大同區重慶北路二段１４５號", "wkb_geometry": "POINT (121.5138178 25.05824015)", "district": "大同區", "phone": "0225579235", "total_beds": 0.0 }, "geometry": { "type": "Point", "coordinates": [ 121.5138178, 25.05824015 ] } },
{ "type": "Feature", "properties": { "data_time": "2024-02-06 18:31:59+08:00", "name": "建祥藥局", "addr": "臺北市大同區寧夏路17號、17-1號", "wkb_geometry": "POINT (121.5150437 25.05485023)", "district": "大同區", "phone": "0225564339", "total_beds": 0.0 }, "geometry": { "type": "Point", "coordinates": [ 121.5150437, 25.05485023 ] } },
{ "type": "Feature", "properties": { "data_time": "2024-02-06 18:31:59+08:00", "name": "正利民藥局", "addr": "臺北市大同區延平北路三段105號", "wkb_geometry": "POINT (121.5110353 25.06805992)", "district": "大同區", "phone": "0225924842", "total_beds": 0.0 }, "geometry": { "type": "Point", "coordinates": [ 121.5110353, 25.06805992 ] } },
{ "type": "Feature", "properties": { "data_time": "2024-02-06 18:31:59+08:00", "name": "華南藥局", "addr": "臺北市大同區迪化街二段二一五號之一", "wkb_geometry": "POINT (121.5116909 25.07036682)", "district": "大同區", "phone": "0225921093", "total_beds": 0.0 }, "geometry": { "type": "Point", "coordinates": [ 121.5116909, 25.07036682 ] } },
{ "type": "Feature", "properties": { "data_time": "2024-02-06 18:31:59+08:00", "name": "德葳藥局", "addr": "臺北市大同區延平北路二段二一一號一樓", "wkb_geometry": "POINT (121.5115042 25.05973935)", "district": "大同區", "phone": "0935490269、25573474", "total_beds": 0.0 }, "geometry": { "type": "Point", "coordinates": [ 121.5115042, 25.05973935 ] } },
{ "type": "Feature", "properties": { "data_time": "2024-02-06 18:31:59+08:00", "name": "酒泉春天藥局", "addr": "臺北市大同區酒泉街94號1樓、2樓", "wkb_geometry": "POINT (121.514555 25.07193436)", "district": "大同區", "phone": "0225977932", "total_beds": 0.0 }, "geometry": { "type": "Point", "coordinates": [ 121.514555, 25.07193436 ] } },
{ "type": "Feature", "properties": { "data_time": "2024-02-06 18:31:59+08:00", "name": "盛康藥局", "addr": "臺北市中山區吉林路399號1樓", "wkb_geometry": "POINT (121.5305078 25.06587178)", "district": "中山區", "phone": "225969580", "total_beds": 0.0 }, "geometry": { "type": "Point", "coordinates": [ 121.5305078, 25.06587178 ] } },
{ "type": "Feature", "properties": { "data_time": "2024-02-06 18:31:59+08:00", "name": "永育康暉藥局", "addr": "臺北市中山區樂群二路210之2號1樓", "wkb_geometry": "POINT (121.5593333 25.07951739)", "district": "中山區", "phone": "285012268", "total_beds": 0.0 }, "geometry": { "type": "Point", "coordinates": [ 121.5593333, 25.07951739 ] } },
{ "type": "Feature", "properties": { "data_time": "2024-02-06 18:31:59+08:00", "name": "可康藥局", "addr": "臺北市中山區林森北路373號(1樓)", "wkb_geometry": "POINT (121.5257301 25.0582221)", "district": "中山區", "phone": "25361078", "total_beds": 0.0 }, "geometry": { "type": "Point", "coordinates": [ 121.5257301, 25.0582221 ] } },
{ "type": "Feature", "properties": { "data_time": "2024-02-06 18:31:59+08:00", "name": "專品龍江藥局", "addr": "臺北市中山區龍江路311號1樓", "wkb_geometry": "POINT (121.5408634 25.06127156)", "district": "中山區", "phone": "225178870", "total_beds": 0.0 }, "geometry": { "type": "Point", "coordinates": [ 121.5408634, 25.06127156 ] } },
{ "type": "Feature", "properties": { "data_time": "2024-02-06 18:31:59+08:00", "name": "躍獅龍江藥局", "addr": "臺北市中山區龍江路2之5號 (1樓)", "wkb_geometry": "POINT (121.540274 25.0471197)", "district": "中山區", "phone": "287727449", "total_beds": 0.0 }, "geometry": { "type": "Point", "coordinates": [ 121.540274, 25.0471197 ] } },
{ "type": "Feature", "properties": { "data_time": "2024-02-06 18:31:59+08:00", "name": "弘元中西藥局", "addr": "臺北市中山區長安東路2段64號1樓", "wkb_geometry": "POINT (121.5335125 25.048345)", "district": "中山區", "phone": "225185688", "total_beds": 0.0 }, "geometry": { "type": "Point", "coordinates": [ 121.5335125, 25.048345 ] } },
{ "type": "Feature", "properties": { "data_time": "2024-02-06 18:31:59+08:00", "name": "錦西春天生活藥局", "addr": "臺北市中山區錦西街10號1樓", "wkb_geometry": "POINT (121.5215743 25.06024008)", "district": "中山區", "phone": "225312658", "total_beds": 0.0 }, "geometry": { "type": "Point", "coordinates": [ 121.5215743, 25.06024008 ] } },
{ "type": "Feature", "properties": { "data_time": "2024-02-06 18:31:59+08:00", "name": "農安台安藥局", "addr": "臺北市中山區農安街267號1樓", "wkb_geometry": "POINT (121.5358091 25.06476458)", "district": "中山區", "phone": "25038205", "total_beds": 0.0 }, "geometry": { "type": "Point", "coordinates": [ 121.5358091, 25.06476458 ] } },
{ "type": "Feature", "properties": { "data_time": "2024-02-06 18:31:59+08:00", "name": "杏一龍錦藥局", "addr": "臺北市中山區龍江路279號1樓", "wkb_geometry": "POINT (121.5408299 25.05973159)", "district": "中山區", "phone": "225174618", "total_beds": 0.0 }, "geometry": { "type": "Point", "coordinates": [ 121.5408299, 25.05973159 ] } },
{ "type": "Feature", "properties": { "data_time": "2024-02-06 18:31:59+08:00", "name": "喜康中西藥局", "addr": "臺北市中山區錦州街185號1樓", "wkb_geometry": "POINT (121.5311529 25.06041838)", "district": "中山區", "phone": "尚未提供", "total_beds": 0.0 }, "geometry": { "type": "Point", "coordinates": [ 121.5311529, 25.06041838 ] } },
{ "type": "Feature", "properties": { "data_time": "2024-02-06 18:31:59+08:00", "name": "沛久藥局", "addr": "臺北市中山區林森北路291號(1樓)", "wkb_geometry": "POINT (121.525632 25.0556598)", "district": "中山區", "phone": "0983296660", "total_beds": 0.0 }, "geometry": { "type": "Point", "coordinates": [ 121.525632, 25.0556598 ] } },
{ "type": "Feature", "properties": { "data_time": "2024-02-06 18:31:59+08:00", "name": "艾禾藥局", "addr": "臺北市中山區大直街63號1樓", "wkb_geometry": "POINT (121.546436 25.08352992)", "district": "中山區", "phone": "0970417275", "total_beds": 0.0 }, "geometry": { "type": "Point", "coordinates": [ 121.546436, 25.08352992 ] } },
{ "type": "Feature", "properties": { "data_time": "2024-02-06 18:31:59+08:00", "name": "中崙藥局", "addr": "臺北市中山區八德路2段307號(1樓)", "wkb_geometry": "POINT (121.542655 25.047402)", "district": "中山區", "phone": "27114971", "total_beds": 0.0 }, "geometry": { "type": "Point", "coordinates": [ 121.542655, 25.047402 ] } },
{ "type": "Feature", "properties": { "data_time": "2024-02-06 18:31:59+08:00", "name": "明水藥局", "addr": "臺北市中山區明水路651號1樓", "wkb_geometry": "POINT (121.5508491 25.08301872)", "district": "中山區", "phone": "225331121", "total_beds": 0.0 }, "geometry": { "type": "Point", "coordinates": [ 121.5508491, 25.08301872 ] } },
{ "type": "Feature", "properties": { "data_time": "2024-02-06 18:31:59+08:00", "name": "錦州藥局", "addr": "臺北市中山區錦州街244號1樓", "wkb_geometry": "POINT (121.5338696 25.06026262)", "district": "中山區", "phone": "225026650", "total_beds": 0.0 }, "geometry": { "type": "Point", "coordinates": [ 121.5338696, 25.06026262 ] } },
{ "type": "Feature", "properties": { "data_time": "2024-02-06 18:31:59+08:00", "name": "農安藥局", "addr": "臺北市中山區農安街18之1號1樓", "wkb_geometry": "POINT (121.5247732 25.06483218)", "district": "中山區", "phone": "225959293", "total_beds": 0.0 }, "geometry": { "type": "Point", "coordinates": [ 121.5247732, 25.06483218 ] } },
{ "type": "Feature", "properties": { "data_time": "2024-02-06 18:31:59+08:00", "name": "吉林藥局", "addr": "臺北市中山區吉林路371號(1樓)", "wkb_geometry": "POINT (121.5304933 25.0650386)", "district": "中山區", "phone": "25865990", "total_beds": 0.0 }, "geometry": { "type": "Point", "coordinates": [ 121.5304933, 25.0650386 ] } },
{ "type": "Feature", "properties": { "data_time": "2024-02-06 18:31:59+08:00", "name": "龍江台安藥局", "addr": "臺北市中山區龍江路247號(1樓)", "wkb_geometry": "POINT (121.5408496 25.0586439)", "district": "中山區", "phone": "0225091007", "total_beds": 0.0 }, "geometry": { "type": "Point", "coordinates": [ 121.5408496, 25.0586439 ] } },
{ "type": "Feature", "properties": { "data_time": "2024-02-06 18:31:59+08:00", "name": "大信藥局", "addr": "臺北市中山區林森北路159巷6號", "wkb_geometry": "POINT (121.5255415 25.05169934)", "district": "中山區", "phone": "0225719080", "total_beds": 0.0 }, "geometry": { "type": "Point", "coordinates": [ 121.5255415, 25.05169934 ] } },
{ "type": "Feature", "properties": { "data_time": "2024-02-06 18:31:59+08:00", "name": "承恩藥局", "addr": "臺北市中山區林森北路119巷55號1樓", "wkb_geometry": "POINT (121.5269316 25.05036026)", "district": "中山區", "phone": "25625117、0225603749", "total_beds": 0.0 }, "geometry": { "type": "Point", "coordinates": [ 121.5269316, 25.05036026 ] } },
{ "type": "Feature", "properties": { "data_time": "2024-02-06 18:31:59+08:00", "name": "明美藥局", "addr": "臺北市中山區長春路６９號１樓", "wkb_geometry": "POINT (121.5265867 25.0550218)", "district": "中山區", "phone": "25365419", "total_beds": 0.0 }, "geometry": { "type": "Point", "coordinates": [ 121.5265867, 25.0550218 ] } },
{ "type": "Feature", "properties": { "data_time": "2024-02-06 18:31:59+08:00", "name": "長生藥局", "addr": "臺北市中山區松江路３６２巷５５號１樓", "wkb_geometry": "POINT (121.5313135 25.06206744)", "district": "中山區", "phone": "0225816210", "total_beds": 0.0 }, "geometry": { "type": "Point", "coordinates": [ 121.5313135, 25.06206744 ] } },
{ "type": "Feature", "properties": { "data_time": "2024-02-06 18:31:59+08:00", "name": "能康藥局", "addr": "臺北市中山區長春路４６號", "wkb_geometry": "POINT (121.5256293 25.05481774)", "district": "中山區", "phone": "0225429426", "total_beds": 0.0 }, "geometry": { "type": "Point", "coordinates": [ 121.5256293, 25.05481774 ] } },
{ "type": "Feature", "properties": { "data_time": "2024-02-06 18:31:59+08:00", "name": "貢玄藥局", "addr": "臺北市中山區錦州街２0７號", "wkb_geometry": "POINT (121.5319628 25.06039407)", "district": "中山區", "phone": "0225637847", "total_beds": 0.0 }, "geometry": { "type": "Point", "coordinates": [ 121.5319628, 25.06039407 ] } },
{ "type": "Feature", "properties": { "data_time": "2024-02-06 18:31:59+08:00", "name": "建元藥局", "addr": "臺北市中山區德惠街79巷8號", "wkb_geometry": "POINT (121.5284529 25.0670582)", "district": "中山區", "phone": "25986171/25973380", "total_beds": 0.0 }, "geometry": { "type": "Point", "coordinates": [ 121.5284529, 25.0670582 ] } },
{ "type": "Feature", "properties": { "data_time": "2024-02-06 18:31:59+08:00", "name": "榮昌藥局", "addr": "臺北市中山區雙城街十七之三號", "wkb_geometry": "POINT (121.5244152 25.06463068)", "district": "中山區", "phone": "-", "total_beds": 0.0 }, "geometry": { "type": "Point", "coordinates": [ 121.5244152, 25.06463068 ] } },
{ "type": "Feature", "properties": { "data_time": "2024-02-06 18:31:59+08:00", "name": "華友藥局", "addr": "臺北市中山區龍江路３５６巷２７號１樓", "wkb_geometry": "POINT (121.5398617 25.06607623)", "district": "中山區", "phone": "0225007159", "total_beds": 0.0 }, "geometry": { "type": "Point", "coordinates": [ 121.5398617, 25.06607623 ] } },
{ "type": "Feature", "properties": { "data_time": "2024-02-06 18:31:59+08:00", "name": "惠友藥局", "addr": "臺北市中山區一江街６０號一樓", "wkb_geometry": "POINT (121.5314085 25.05444439)", "district": "中山區", "phone": "0225712813", "total_beds": 0.0 }, "geometry": { "type": "Point", "coordinates": [ 121.5314085, 25.05444439 ] } },
{ "type": "Feature", "properties": { "data_time": "2024-02-06 18:31:59+08:00", "name": "康仁藥局", "addr": "臺北市中山區北安路578巷8弄3號", "wkb_geometry": "POINT (121.548865 25.08063238)", "district": "中山區", "phone": "0225323739", "total_beds": 0.0 }, "geometry": { "type": "Point", "coordinates": [ 121.548865, 25.08063238 ] } },
{ "type": "Feature", "properties": { "data_time": "2024-02-06 18:31:59+08:00", "name": "名章藥局", "addr": "臺北市中山區興安街５１－５號１樓", "wkb_geometry": "POINT (121.5412817 25.05620776)", "district": "中山區", "phone": "0225034331", "total_beds": 0.0 }, "geometry": { "type": "Point", "coordinates": [ 121.5412817, 25.05620776 ] } },
{ "type": "Feature", "properties": { "data_time": "2024-02-06 18:31:59+08:00", "name": "大直藥局", "addr": "臺北市中山區北安路617號1樓", "wkb_geometry": "POINT (121.5488379 25.08272832)", "district": "中山區", "phone": "0225320522", "total_beds": 0.0 }, "geometry": { "type": "Point", "coordinates": [ 121.5488379, 25.08272832 ] } },
{ "type": "Feature", "properties": { "data_time": "2024-02-06 18:31:59+08:00", "name": "慈海藥局", "addr": "臺北市中山區中原街一四三號", "wkb_geometry": "POINT (121.5291312 25.06427377)", "district": "中山區", "phone": "25940989", "total_beds": 0.0 }, "geometry": { "type": "Point", "coordinates": [ 121.5291312, 25.06427377 ] } },
{ "type": "Feature", "properties": { "data_time": "2024-02-06 18:31:59+08:00", "name": "永直藥局", "addr": "臺北市中山區北安路595巷2弄6號", "wkb_geometry": "POINT (121.5482952 25.08192618)", "district": "中山區", "phone": "225336919", "total_beds": 0.0 }, "geometry": { "type": "Point", "coordinates": [ 121.5482952, 25.08192618 ] } },
{ "type": "Feature", "properties": { "data_time": "2024-02-06 18:31:59+08:00", "name": "蓁榛健康生活藥局", "addr": "臺北市中山區合江街100之2號1樓", "wkb_geometry": "POINT (121.53911 25.05845421)", "district": "中山區", "phone": "25097780", "total_beds": 0.0 }, "geometry": { "type": "Point", "coordinates": [ 121.53911, 25.05845421 ] } },
{ "type": "Feature", "properties": { "data_time": "2024-02-06 18:31:59+08:00", "name": "中興藥局", "addr": "臺北市中山區長安東路2段226號", "wkb_geometry": "POINT (121.5427089 25.04818087)", "district": "中山區", "phone": "227774628", "total_beds": 0.0 }, "geometry": { "type": "Point", "coordinates": [ 121.5427089, 25.04818087 ] } },
{ "type": "Feature", "properties": { "data_time": "2024-02-06 18:31:59+08:00", "name": "王中興藥局", "addr": "臺北市中山區龍江路273號", "wkb_geometry": "POINT (121.5408259 25.05955642)", "district": "中山區", "phone": "25034281", "total_beds": 0.0 }, "geometry": { "type": "Point", "coordinates": [ 121.5408259, 25.05955642 ] } },
{ "type": "Feature", "properties": { "data_time": "2024-02-06 18:31:59+08:00", "name": "康廷藥局", "addr": "臺北市中山區北安路611號(1樓)", "wkb_geometry": "POINT (121.548759 25.08253)", "district": "中山區", "phone": "225335890", "total_beds": 0.0 }, "geometry": { "type": "Point", "coordinates": [ 121.548759, 25.08253 ] } },
{ "type": "Feature", "properties": { "data_time": "2024-02-06 18:31:59+08:00", "name": "興耀生活藥局", "addr": "臺北市中山區林森北路405號(1樓)", "wkb_geometry": "POINT (121.525688 25.0594192)", "district": "中山區", "phone": "225818210", "total_beds": 0.0 }, "geometry": { "type": "Point", "coordinates": [ 121.525688, 25.0594192 ] } },
{ "type": "Feature", "properties": { "data_time": "2024-02-06 18:31:59+08:00", "name": "視美藥局", "addr": "臺北市中山區民權東路三段６０巷８號１樓", "wkb_geometry": "POINT (121.5423043 25.06160802)", "district": "中山區", "phone": "0225019597", "total_beds": 0.0 }, "geometry": { "type": "Point", "coordinates": [ 121.5423043, 25.06160802 ] } },
{ "type": "Feature", "properties": { "data_time": "2024-02-06 18:31:59+08:00", "name": "百源堂大藥局", "addr": "臺北市中山區長安東路二段四十七之五號一樓", "wkb_geometry": "POINT (121.5322474 25.04857182)", "district": "中山區", "phone": "0225630711", "total_beds": 0.0 }, "geometry": { "type": "Point", "coordinates": [ 121.5322474, 25.04857182 ] } },
{ "type": "Feature", "properties": { "data_time": "2024-02-06 18:31:59+08:00", "name": "名祥藥局", "addr": "臺北市中山區龍江路１６６號", "wkb_geometry": "POINT (121.5404011 25.05505954)", "district": "中山區", "phone": "0225036265", "total_beds": 0.0 }, "geometry": { "type": "Point", "coordinates": [ 121.5404011, 25.05505954 ] } },
{ "type": "Feature", "properties": { "data_time": "2024-02-06 18:31:59+08:00", "name": "順泰藥局", "addr": "臺北市中山區錦州街266號1樓", "wkb_geometry": "POINT (121.5347502 25.06025322)", "district": "中山區", "phone": "0225038916", "total_beds": 0.0 }, "geometry": { "type": "Point", "coordinates": [ 121.5347502, 25.06025322 ] } },
{ "type": "Feature", "properties": { "data_time": "2024-02-06 18:31:59+08:00", "name": "滿順藥局", "addr": "臺北市中山區伊通街54號1樓", "wkb_geometry": "POINT (121.5346549 25.05144816)", "district": "中山區", "phone": "0225075283", "total_beds": 0.0 }, "geometry": { "type": "Point", "coordinates": [ 121.5346549, 25.05144816 ] } },
{ "type": "Feature", "properties": { "data_time": "2024-02-06 18:31:59+08:00", "name": "優豐藥局", "addr": "臺北市中山區民生東路一段三十二號", "wkb_geometry": "POINT (121.524223 25.05793492)", "district": "中山區", "phone": "0225602565", "total_beds": 0.0 }, "geometry": { "type": "Point", "coordinates": [ 121.524223, 25.05793492 ] } },
{ "type": "Feature", "properties": { "data_time": "2024-02-06 18:31:59+08:00", "name": "泰興藥局", "addr": "臺北市中山區新生北路二段６２巷３２號", "wkb_geometry": "POINT (121.5263361 25.05613101)", "district": "中山區", "phone": "0225371586", "total_beds": 0.0 }, "geometry": { "type": "Point", "coordinates": [ 121.5263361, 25.05613101 ] } },
{ "type": "Feature", "properties": { "data_time": "2024-02-06 18:31:59+08:00", "name": "阿里藥局", "addr": "臺北市中山區錦州街251號1樓", "wkb_geometry": "POINT (121.5341938 25.06039343)", "district": "中山區", "phone": "0225020638", "total_beds": 0.0 }, "geometry": { "type": "Point", "coordinates": [ 121.5341938, 25.06039343 ] } },
{ "type": "Feature", "properties": { "data_time": "2024-02-06 18:31:59+08:00", "name": "良佑藥局", "addr": "臺北市中山區撫順街６之２號１樓", "wkb_geometry": "POINT (121.5214126 25.06365813)", "district": "中山區", "phone": "0225916402", "total_beds": 0.0 }, "geometry": { "type": "Point", "coordinates": [ 121.5214126, 25.06365813 ] } },
{ "type": "Feature", "properties": { "data_time": "2024-02-06 18:31:59+08:00", "name": "第一藥局", "addr": "臺北市中山區合江街１７巷６號", "wkb_geometry": "POINT (121.5394497 25.05510441)", "district": "中山區", "phone": "0225030124", "total_beds": 0.0 }, "geometry": { "type": "Point", "coordinates": [ 121.5394497, 25.05510441 ] } },
{ "type": "Feature", "properties": { "data_time": "2024-02-06 18:31:59+08:00", "name": "立大藥局", "addr": "臺北市中山區吉林路144巷14號", "wkb_geometry": "POINT (121.5295776 25.05598437)", "district": "中山區", "phone": "0225313844", "total_beds": 0.0 }, "geometry": { "type": "Point", "coordinates": [ 121.5295776, 25.05598437 ] } },
{ "type": "Feature", "properties": { "data_time": "2024-02-06 18:31:59+08:00", "name": "武璋大藥局", "addr": "臺北市中山區伊通街９７號之２", "wkb_geometry": "POINT (121.5348935 25.0530962)", "district": "中山區", "phone": "0225072026", "total_beds": 0.0 }, "geometry": { "type": "Point", "coordinates": [ 121.5348935, 25.0530962 ] } },
{ "type": "Feature", "properties": { "data_time": "2024-02-06 18:31:59+08:00", "name": "長青藥局", "addr": "臺北市中山區興安街５５號１樓", "wkb_geometry": "POINT (121.5418871 25.05620708)", "district": "中山區", "phone": "0225053160", "total_beds": 0.0 }, "geometry": { "type": "Point", "coordinates": [ 121.5418871, 25.05620708 ] } },
{ "type": "Feature", "properties": { "data_time": "2024-02-06 18:31:59+08:00", "name": "晏晟藥局", "addr": "臺北市中山區林森北路６２５號", "wkb_geometry": "POINT (121.5258586 25.0670343)", "district": "中山區", "phone": "0225851445", "total_beds": 0.0 }, "geometry": { "type": "Point", "coordinates": [ 121.5258586, 25.0670343 ] } },
{ "type": "Feature", "properties": { "data_time": "2024-02-06 18:31:59+08:00", "name": "美日藥局", "addr": "臺北市中山區天津街六十六號一樓", "wkb_geometry": "POINT (121.5232742 25.05136434)", "district": "中山區", "phone": "25631662", "total_beds": 0.0 }, "geometry": { "type": "Point", "coordinates": [ 121.5232742, 25.05136434 ] } },
{ "type": "Feature", "properties": { "data_time": "2024-02-06 18:31:59+08:00", "name": "人人藥局", "addr": "臺北市中山區吉林路二六七號一樓", "wkb_geometry": "POINT (121.5303983 25.06208985)", "district": "中山區", "phone": "225630798", "total_beds": 0.0 }, "geometry": { "type": "Point", "coordinates": [ 121.5303983, 25.06208985 ] } },
{ "type": "Feature", "properties": { "data_time": "2024-02-06 18:31:59+08:00", "name": "文德藥局", "addr": "臺北市中山區龍江路三五六巷十九號一樓", "wkb_geometry": "POINT (121.54104 25.0626817)", "district": "中山區", "phone": "25181178", "total_beds": 0.0 }, "geometry": { "type": "Point", "coordinates": [ 121.54104, 25.0626817 ] } },
{ "type": "Feature", "properties": { "data_time": "2024-02-06 18:31:59+08:00", "name": "展佑藥局", "addr": "臺北市中山區長春路一四六之一號", "wkb_geometry": "POINT (121.5317112 25.05472764)", "district": "中山區", "phone": "25232803", "total_beds": 0.0 }, "geometry": { "type": "Point", "coordinates": [ 121.5317112, 25.05472764 ] } },
{ "type": "Feature", "properties": { "data_time": "2024-02-06 18:31:59+08:00", "name": "祥泰藥局", "addr": "臺北市中山區林森北路136號", "wkb_geometry": "POINT (121.5250871 25.05141934)", "district": "中山區", "phone": "225614200", "total_beds": 0.0 }, "geometry": { "type": "Point", "coordinates": [ 121.5250871, 25.05141934 ] } },
{ "type": "Feature", "properties": { "data_time": "2024-02-06 18:31:59+08:00", "name": "嘉恩藥局", "addr": "臺北市中山區錦州街321號", "wkb_geometry": "POINT (121.538508 25.06032598)", "district": "中山區", "phone": "25181418", "total_beds": 0.0 }, "geometry": { "type": "Point", "coordinates": [ 121.538508, 25.06032598 ] } },
{ "type": "Feature", "properties": { "data_time": "2024-02-06 18:31:59+08:00", "name": "樂活苑藥局", "addr": "臺北市中山區北安路546號1樓", "wkb_geometry": "POINT (121.547952 25.08014025)", "district": "中山區", "phone": "25323296", "total_beds": 0.0 }, "geometry": { "type": "Point", "coordinates": [ 121.547952, 25.08014025 ] } },
{ "type": "Feature", "properties": { "data_time": "2024-02-06 18:31:59+08:00", "name": "麗亞藥局", "addr": "臺北市中山區雙城街32號", "wkb_geometry": "POINT (121.5242361 25.06634085)", "district": "中山區", "phone": "25981065", "total_beds": 0.0 }, "geometry": { "type": "Point", "coordinates": [ 121.5242361, 25.06634085 ] } },
{ "type": "Feature", "properties": { "data_time": "2024-02-06 18:31:59+08:00", "name": "大愛藥師藥局", "addr": "臺北市中山區吉林路255號", "wkb_geometry": "POINT (121.5303915 25.06164733)", "district": "中山區", "phone": "25424723", "total_beds": 0.0 }, "geometry": { "type": "Point", "coordinates": [ 121.5303915, 25.06164733 ] } },
{ "type": "Feature", "properties": { "data_time": "2024-02-06 18:31:59+08:00", "name": "久大藥局", "addr": "臺北市中山區林森北路480號", "wkb_geometry": "POINT (121.5254776 25.06126938)", "district": "中山區", "phone": "25111594", "total_beds": 0.0 }, "geometry": { "type": "Point", "coordinates": [ 121.5254776, 25.06126938 ] } },
{ "type": "Feature", "properties": { "data_time": "2024-02-06 18:31:59+08:00", "name": "專心藥局", "addr": "臺北市中山區伊通街112之2號", "wkb_geometry": "POINT (121.5347251 25.0542576)", "district": "中山區", "phone": "25155847", "total_beds": 0.0 }, "geometry": { "type": "Point", "coordinates": [ 121.5347251, 25.0542576 ] } },
{ "type": "Feature", "properties": { "data_time": "2024-02-06 18:31:59+08:00", "name": "康林藥局", "addr": "臺北市中山區興安街105號", "wkb_geometry": "POINT (121.5437701 25.05616582)", "district": "中山區", "phone": "25171867", "total_beds": 0.0 }, "geometry": { "type": "Point", "coordinates": [ 121.5437701, 25.05616582 ] } },
{ "type": "Feature", "properties": { "data_time": "2024-02-06 18:31:59+08:00", "name": "民生興安藥局", "addr": "臺北市中山區民生東路3段90之1號", "wkb_geometry": "POINT (121.543538 25.05745882)", "district": "中山區", "phone": "25018310", "total_beds": 0.0 }, "geometry": { "type": "Point", "coordinates": [ 121.543538, 25.05745882 ] } },
{ "type": "Feature", "properties": { "data_time": "2024-02-06 18:31:59+08:00", "name": "啟美藥師藥局", "addr": "臺北市中山區錦州街282號", "wkb_geometry": "POINT (121.5352375 25.06023864)", "district": "中山區", "phone": "225178032", "total_beds": 0.0 }, "geometry": { "type": "Point", "coordinates": [ 121.5352375, 25.06023864 ] } },
{ "type": "Feature", "properties": { "data_time": "2024-02-06 18:31:59+08:00", "name": "龍江藥局", "addr": "臺北市中山區龍江路356巷14號", "wkb_geometry": "POINT (121.5402935 25.06591256)", "district": "中山區", "phone": "25023724", "total_beds": 0.0 }, "geometry": { "type": "Point", "coordinates": [ 121.5402935, 25.06591256 ] } },
{ "type": "Feature", "properties": { "data_time": "2024-02-06 18:31:59+08:00", "name": "躍獅晴光藥局", "addr": "臺北市中山區農安街23之2號", "wkb_geometry": "POINT (121.5245403 25.06500749)", "district": "中山區", "phone": "25951393", "total_beds": 0.0 }, "geometry": { "type": "Point", "coordinates": [ 121.5245403, 25.06500749 ] } },
{ "type": "Feature", "properties": { "data_time": "2024-02-06 18:31:59+08:00", "name": "德惠藥局", "addr": "臺北市中山區德惠街122號", "wkb_geometry": "POINT (121.5300424 25.06652212)", "district": "中山區", "phone": "25971131、0925859057", "total_beds": 0.0 }, "geometry": { "type": "Point", "coordinates": [ 121.5300424, 25.06652212 ] } },
{ "type": "Feature", "properties": { "data_time": "2024-02-06 18:31:59+08:00", "name": "金生藥局", "addr": "臺北市中山區長安東路2段167之1號", "wkb_geometry": "POINT (121.5406803 25.04842621)", "district": "中山區", "phone": "0287729808、27312302", "total_beds": 0.0 }, "geometry": { "type": "Point", "coordinates": [ 121.5406803, 25.04842621 ] } },
{ "type": "Feature", "properties": { "data_time": "2024-02-06 18:31:59+08:00", "name": "興康源藥局", "addr": "臺北市中山區中山北路1段140巷8號", "wkb_geometry": "POINT (121.5214016 25.05143389)", "district": "中山區", "phone": "25311248", "total_beds": 0.0 }, "geometry": { "type": "Point", "coordinates": [ 121.5214016, 25.05143389 ] } },
{ "type": "Feature", "properties": { "data_time": "2024-02-06 18:31:59+08:00", "name": "富宥康藥局", "addr": "臺北市中山區北安路608巷5弄22號", "wkb_geometry": "POINT (121.5496274 25.08262868)", "district": "中山區", "phone": "225324769", "total_beds": 0.0 }, "geometry": { "type": "Point", "coordinates": [ 121.5496274, 25.08262868 ] } },
{ "type": "Feature", "properties": { "data_time": "2024-02-06 18:31:59+08:00", "name": "淮濟藥師藥局", "addr": "臺北市中山區北安路570號(實際營業地址:1樓及地下1樓)", "wkb_geometry": "POINT (121.548559 25.080761)", "district": "中山區", "phone": "85098636", "total_beds": 0.0 }, "geometry": { "type": "Point", "coordinates": [ 121.548559, 25.080761 ] } },
{ "type": "Feature", "properties": { "data_time": "2024-02-06 18:31:59+08:00", "name": "逸帆藥局", "addr": "臺北市中山區錦州街189號", "wkb_geometry": "POINT (121.5312441 25.0604171)", "district": "中山區", "phone": "978783152", "total_beds": 0.0 }, "geometry": { "type": "Point", "coordinates": [ 121.5312441, 25.0604171 ] } },
{ "type": "Feature", "properties": { "data_time": "2024-02-06 18:31:59+08:00", "name": "正傑健保藥局", "addr": "臺北市中山區長安東路二段181號", "wkb_geometry": "POINT (121.5425691 25.04838455)", "district": "中山區", "phone": "27310181、0958056616", "total_beds": 0.0 }, "geometry": { "type": "Point", "coordinates": [ 121.5425691, 25.04838455 ] } },
{ "type": "Feature", "properties": { "data_time": "2024-02-06 18:31:59+08:00", "name": "中山藥局", "addr": "臺北市中山區林森北路128號", "wkb_geometry": "POINT (121.5250397 25.05124953)", "district": "中山區", "phone": "25236979、0937661282", "total_beds": 0.0 }, "geometry": { "type": "Point", "coordinates": [ 121.5250397, 25.05124953 ] } },
{ "type": "Feature", "properties": { "data_time": "2024-02-06 18:31:59+08:00", "name": "保德明水藥局", "addr": "臺北市中山區北安路608巷4弄1號", "wkb_geometry": "POINT (121.5492907 25.08191229)", "district": "中山區", "phone": "85097769", "total_beds": 0.0 }, "geometry": { "type": "Point", "coordinates": [ 121.5492907, 25.08191229 ] } },
{ "type": "Feature", "properties": { "data_time": "2024-02-06 18:31:59+08:00", "name": "廣福中西藥局", "addr": "臺北市中山區錦州街406號", "wkb_geometry": "POINT (121.5416596 25.06011408)", "district": "中山區", "phone": "25189489", "total_beds": 0.0 }, "geometry": { "type": "Point", "coordinates": [ 121.5416596, 25.06011408 ] } },
{ "type": "Feature", "properties": { "data_time": "2024-02-06 18:31:59+08:00", "name": "大直健康藥局", "addr": "臺北市中山區北安路591號", "wkb_geometry": "POINT (121.5486435 25.08194407)", "district": "中山區", "phone": "225323310", "total_beds": 0.0 }, "geometry": { "type": "Point", "coordinates": [ 121.5486435, 25.08194407 ] } },
{ "type": "Feature", "properties": { "data_time": "2024-02-06 18:31:59+08:00", "name": "娸淇藥局", "addr": "臺北市中山區伊通街95號", "wkb_geometry": "POINT (121.5348935 25.05305456)", "district": "中山區", "phone": "25082762", "total_beds": 0.0 }, "geometry": { "type": "Point", "coordinates": [ 121.5348935, 25.05305456 ] } },
{ "type": "Feature", "properties": { "data_time": "2024-02-06 18:31:59+08:00", "name": "OK藥師藥局", "addr": "臺北市中山區興安街95號", "wkb_geometry": "POINT (121.5434646 25.05615461)", "district": "中山區", "phone": "25170068", "total_beds": 0.0 }, "geometry": { "type": "Point", "coordinates": [ 121.5434646, 25.05615461 ] } },
{ "type": "Feature", "properties": { "data_time": "2024-02-06 18:31:59+08:00", "name": "昶青林森藥局", "addr": "臺北市中山區林森北路119巷52號", "wkb_geometry": "POINT (121.526852 25.05018155)", "district": "中山區", "phone": "225639939", "total_beds": 0.0 }, "geometry": { "type": "Point", "coordinates": [ 121.526852, 25.05018155 ] } },
{ "type": "Feature", "properties": { "data_time": "2024-02-06 18:31:59+08:00", "name": "麗恩藥局", "addr": "臺北市中山區林森北路575之5號", "wkb_geometry": "POINT (121.5257983 25.06529877)", "district": "中山區", "phone": "225981982", "total_beds": 0.0 }, "geometry": { "type": "Point", "coordinates": [ 121.5257983, 25.06529877 ] } },
{ "type": "Feature", "properties": { "data_time": "2024-02-06 18:31:59+08:00", "name": "建誠中西藥局", "addr": "臺北市中山區龍江路385之1號", "wkb_geometry": "POINT (121.5410461 25.06510644)", "district": "中山區", "phone": "225158608", "total_beds": 0.0 }, "geometry": { "type": "Point", "coordinates": [ 121.5410461, 25.06510644 ] } },
{ "type": "Feature", "properties": { "data_time": "2024-02-06 18:31:59+08:00", "name": "誠意中西藥局", "addr": "臺北市中山區林森北路613號", "wkb_geometry": "POINT (121.5258246 25.06647284)", "district": "中山區", "phone": "225950951", "total_beds": 0.0 }, "geometry": { "type": "Point", "coordinates": [ 121.5258246, 25.06647284 ] } },
{ "type": "Feature", "properties": { "data_time": "2024-02-06 18:31:59+08:00", "name": "長安藥局", "addr": "臺北市中山區長安東路2段171之2號(1樓)", "wkb_geometry": "POINT (121.521914 25.049564)", "district": "中山區", "phone": "227772740", "total_beds": 0.0 }, "geometry": { "type": "Point", "coordinates": [ 121.521914, 25.049564 ] } },
{ "type": "Feature", "properties": { "data_time": "2024-02-06 18:31:59+08:00", "name": "仁一藥局", "addr": "臺北市中山區林森北路520號", "wkb_geometry": "POINT (121.5255056 25.06232638)", "district": "中山區", "phone": "225711742", "total_beds": 0.0 }, "geometry": { "type": "Point", "coordinates": [ 121.5255056, 25.06232638 ] } },
{ "type": "Feature", "properties": { "data_time": "2024-02-06 18:31:59+08:00", "name": "大直小太陽藥局", "addr": "臺北市中山區北安路607-1號", "wkb_geometry": "POINT (121.5487621 25.08240974)", "district": "中山區", "phone": "85093208", "total_beds": 0.0 }, "geometry": { "type": "Point", "coordinates": [ 121.5487621, 25.08240974 ] } },
{ "type": "Feature", "properties": { "data_time": "2024-02-06 18:31:59+08:00", "name": "美康正康藥局", "addr": "臺北市中山區北安路616之1號、618號2樓之1", "wkb_geometry": "POINT (121.5490633 25.0823902)", "district": "中山區", "phone": "25323077", "total_beds": 0.0 }, "geometry": { "type": "Point", "coordinates": [ 121.5490633, 25.0823902 ] } },
{ "type": "Feature", "properties": { "data_time": "2024-02-06 18:31:59+08:00", "name": "大直永安藥局", "addr": "臺北市中山區北安路567之2號", "wkb_geometry": "POINT (121.5481721 25.08072835)", "district": "中山區", "phone": "0225332125、0932959455", "total_beds": 0.0 }, "geometry": { "type": "Point", "coordinates": [ 121.5481721, 25.08072835 ] } },
{ "type": "Feature", "properties": { "data_time": "2024-02-06 18:31:59+08:00", "name": "元宏藥局", "addr": "臺北市中山區北安路458巷41弄49號", "wkb_geometry": "POINT (121.5464584 25.07940104)", "district": "中山區", "phone": "225339728", "total_beds": 0.0 }, "geometry": { "type": "Point", "coordinates": [ 121.5464584, 25.07940104 ] } },
{ "type": "Feature", "properties": { "data_time": "2024-02-06 18:31:59+08:00", "name": "聖晨藥局", "addr": "臺北市中山區農安街140號", "wkb_geometry": "POINT (121.5321651 25.06471241)", "district": "中山區", "phone": "-", "total_beds": 0.0 }, "geometry": { "type": "Point", "coordinates": [ 121.5321651, 25.06471241 ] } },
{ "type": "Feature", "properties": { "data_time": "2024-02-06 18:31:59+08:00", "name": "錦州春天生活藥局", "addr": "臺北市中山區錦州街213號、213號2樓", "wkb_geometry": "POINT (121.532133 25.0604103)", "district": "中山區", "phone": "0225213586", "total_beds": 0.0 }, "geometry": { "type": "Point", "coordinates": [ 121.532133, 25.0604103 ] } },
{ "type": "Feature", "properties": { "data_time": "2024-02-06 18:31:59+08:00", "name": "佳頤中西藥局", "addr": "臺北市中山區長春路147之1號", "wkb_geometry": "POINT (121.5323456 25.05495168)", "district": "中山區", "phone": "225641479", "total_beds": 0.0 }, "geometry": { "type": "Point", "coordinates": [ 121.5323456, 25.05495168 ] } },
{ "type": "Feature", "properties": { "data_time": "2024-02-06 18:31:59+08:00", "name": "康銓藥局", "addr": "臺北市中山區農安街174號", "wkb_geometry": "POINT (121.5346414 25.06456845)", "district": "中山區", "phone": "25039393;0987968454", "total_beds": 0.0 }, "geometry": { "type": "Point", "coordinates": [ 121.5346414, 25.06456845 ] } },
{ "type": "Feature", "properties": { "data_time": "2024-02-06 18:31:59+08:00", "name": "禾全藥局", "addr": "臺北市中山區龍江路332號", "wkb_geometry": "POINT (121.5408713 25.06532285)", "district": "中山區", "phone": "225165721", "total_beds": 0.0 }, "geometry": { "type": "Point", "coordinates": [ 121.5408713, 25.06532285 ] } },
{ "type": "Feature", "properties": { "data_time": "2024-02-06 18:31:59+08:00", "name": "十二願藥局", "addr": "臺北市中山區林森北路309號", "wkb_geometry": "POINT (121.5255679 25.05588048)", "district": "中山區", "phone": "0925137125", "total_beds": 0.0 }, "geometry": { "type": "Point", "coordinates": [ 121.5255679, 25.05588048 ] } },
{ "type": "Feature", "properties": { "data_time": "2024-02-06 18:31:59+08:00", "name": "禾康藥局", "addr": "臺北市中山區植福路296號(實際營業地址:1層)", "wkb_geometry": "POINT (121.561177 25.0812457)", "district": "中山區", "phone": "-", "total_beds": 0.0 }, "geometry": { "type": "Point", "coordinates": [ 121.561177, 25.0812457 ] } },
{ "type": "Feature", "properties": { "data_time": "2024-02-06 18:31:59+08:00", "name": "大樹龍江藥局", "addr": "臺北市中山區龍江路242號", "wkb_geometry": "POINT (121.5406119 25.05888538)", "district": "中山區", "phone": "225035666", "total_beds": 0.0 }, "geometry": { "type": "Point", "coordinates": [ 121.5406119, 25.05888538 ] } },
{ "type": "Feature", "properties": { "data_time": "2024-02-06 18:31:59+08:00", "name": "安悅藥局", "addr": "臺北市中山區吉林路189號", "wkb_geometry": "POINT (121.5303558 25.05970358)", "district": "中山區", "phone": "25419879", "total_beds": 0.0 }, "geometry": { "type": "Point", "coordinates": [ 121.5303558, 25.05970358 ] } },
{ "type": "Feature", "properties": { "data_time": "2024-02-06 18:31:59+08:00", "name": "東東藥局", "addr": "臺北市中山區長春路257之2號1樓", "wkb_geometry": "POINT (121.5407881 25.05476923)", "district": "中山區", "phone": "225031730", "total_beds": 0.0 }, "geometry": { "type": "Point", "coordinates": [ 121.5407881, 25.05476923 ] } },
{ "type": "Feature", "properties": { "data_time": "2024-02-06 18:31:59+08:00", "name": "誠果中西藥局", "addr": "臺北市中山區吉林路101號1樓", "wkb_geometry": "POINT (121.5302839 25.05618779)", "district": "中山區", "phone": "225238563", "total_beds": 0.0 }, "geometry": { "type": "Point", "coordinates": [ 121.5302839, 25.05618779 ] } },
{ "type": "Feature", "properties": { "data_time": "2024-02-06 18:31:59+08:00", "name": "吉仁藥局", "addr": "臺北市松山區延吉街44號1樓", "wkb_geometry": "POINT (121.5535737 25.0455101)", "district": "松山區", "phone": "225776115", "total_beds": 0.0 }, "geometry": { "type": "Point", "coordinates": [ 121.5535737, 25.0455101 ] } },
{ "type": "Feature", "properties": { "data_time": "2024-02-06 18:31:59+08:00", "name": "專品南京藥局", "addr": "臺北市松山區南京東路4段73號1樓", "wkb_geometry": "POINT (121.5531673 25.05184566)", "district": "松山區", "phone": "25147685", "total_beds": 0.0 }, "geometry": { "type": "Point", "coordinates": [ 121.5531673, 25.05184566 ] } },
{ "type": "Feature", "properties": { "data_time": "2024-02-06 18:31:59+08:00", "name": "欣生藥局", "addr": "臺北市松山區民生東路5段138巷1號(1樓)", "wkb_geometry": "POINT (121.5617442 25.05857)", "district": "松山區", "phone": "227567611", "total_beds": 0.0 }, "geometry": { "type": "Point", "coordinates": [ 121.5617442, 25.05857 ] } },
{ "type": "Feature", "properties": { "data_time": "2024-02-06 18:31:59+08:00", "name": "延吉春天藥局", "addr": "臺北市松山區延吉街32號1樓", "wkb_geometry": "POINT (121.5535037 25.04607546)", "district": "松山區", "phone": "225775277", "total_beds": 0.0 }, "geometry": { "type": "Point", "coordinates": [ 121.5535037, 25.04607546 ] } },
{ "type": "Feature", "properties": { "data_time": "2024-02-06 18:31:59+08:00", "name": "新東藥局", "addr": "臺北市松山區民生東路5段191號(1樓)", "wkb_geometry": "POINT (121.565634 25.0592949)", "district": "松山區", "phone": "27656336", "total_beds": 0.0 }, "geometry": { "type": "Point", "coordinates": [ 121.565634, 25.0592949 ] } },
{ "type": "Feature", "properties": { "data_time": "2024-02-06 18:31:59+08:00", "name": "萬芯中西藥局", "addr": "臺北市松山區八德路3段163號(1樓)", "wkb_geometry": "POINT (121.5553382 25.0481861)", "district": "松山區", "phone": "225770519", "total_beds": 0.0 }, "geometry": { "type": "Point", "coordinates": [ 121.5553382, 25.0481861 ] } },
{ "type": "Feature", "properties": { "data_time": "2024-02-06 18:31:59+08:00", "name": "領悅藥局", "addr": "臺北市松山區民生東路4段117之1號(1樓)", "wkb_geometry": "POINT (121.553279 25.058252)", "district": "松山區", "phone": "0225679951", "total_beds": 0.0 }, "geometry": { "type": "Point", "coordinates": [ 121.553279, 25.058252 ] } },
{ "type": "Feature", "properties": { "data_time": "2024-02-06 18:31:59+08:00", "name": "興宸藥局", "addr": "臺北市松山區富錦街512號1樓", "wkb_geometry": "POINT (121.5645186 25.06091416)", "district": "松山區", "phone": "0227658970", "total_beds": 0.0 }, "geometry": { "type": "Point", "coordinates": [ 121.5645186, 25.06091416 ] } },
{ "type": "Feature", "properties": { "data_time": "2024-02-06 18:31:59+08:00", "name": "榮星藥局", "addr": "臺北市松山區南京東路四段１３３巷５弄１號", "wkb_geometry": "POINT (121.5552348 25.05213652)", "district": "松山區", "phone": "0227124696", "total_beds": 0.0 }, "geometry": { "type": "Point", "coordinates": [ 121.5552348, 25.05213652 ] } },
{ "type": "Feature", "properties": { "data_time": "2024-02-06 18:31:59+08:00", "name": "東北藥局", "addr": "臺北市松山區新東街３巷２號", "wkb_geometry": "POINT (121.5659226 25.05754042)", "district": "松山區", "phone": "0227612625", "total_beds": 0.0 }, "geometry": { "type": "Point", "coordinates": [ 121.5659226, 25.05754042 ] } },
{ "type": "Feature", "properties": { "data_time": "2024-02-06 18:31:59+08:00", "name": "新光藥局", "addr": "臺北市松山區八德路三段99巷4號", "wkb_geometry": "POINT (121.5535281 25.04871727)", "district": "松山區", "phone": "0225775672", "total_beds": 0.0 }, "geometry": { "type": "Point", "coordinates": [ 121.5535281, 25.04871727 ] } },
{ "type": "Feature", "properties": { "data_time": "2024-02-06 18:31:59+08:00", "name": "健全藥局", "addr": "臺北市松山區民權東路三段１０３巷２０號", "wkb_geometry": "POINT (121.5449109 25.06326943)", "district": "松山區", "phone": "0227128293", "total_beds": 0.0 }, "geometry": { "type": "Point", "coordinates": [ 121.5449109, 25.06326943 ] } },
{ "type": "Feature", "properties": { "data_time": "2024-02-06 18:31:59+08:00", "name": "李得安藥局", "addr": "臺北市松山區民生東路五段３６巷８弄１１號一樓", "wkb_geometry": "POINT (121.5598565 25.05733299)", "district": "松山區", "phone": "0287871655", "total_beds": 0.0 }, "geometry": { "type": "Point", "coordinates": [ 121.5598565, 25.05733299 ] } },
{ "type": "Feature", "properties": { "data_time": "2024-02-06 18:31:59+08:00", "name": "瑞昌大藥局", "addr": "臺北市松山區民權東路三段103巷10號", "wkb_geometry": "POINT (121.5449185 25.06298433)", "district": "松山區", "phone": "0227120030", "total_beds": 0.0 }, "geometry": { "type": "Point", "coordinates": [ 121.5449185, 25.06298433 ] } },
{ "type": "Feature", "properties": { "data_time": "2024-02-06 18:31:59+08:00", "name": "德川中西藥局", "addr": "臺北市松山區八德路4段96號", "wkb_geometry": "POINT (121.5606599 25.0483598)", "district": "松山區", "phone": "27683399", "total_beds": 0.0 }, "geometry": { "type": "Point", "coordinates": [ 121.5606599, 25.0483598 ] } },
{ "type": "Feature", "properties": { "data_time": "2024-02-06 18:31:59+08:00", "name": "德安藥局", "addr": "臺北市松山區八德路3段195號2樓", "wkb_geometry": "POINT (121.55619 25.04816251)", "district": "松山區", "phone": "225782670", "total_beds": 0.0 }, "geometry": { "type": "Point", "coordinates": [ 121.55619, 25.04816251 ] } },
{ "type": "Feature", "properties": { "data_time": "2024-02-06 18:31:59+08:00", "name": "禾宜藥局", "addr": "臺北市松山區八德路3段12巷51弄16號1樓", "wkb_geometry": "POINT (121.5511815 25.04608639)", "district": "松山區", "phone": "225780236", "total_beds": 0.0 }, "geometry": { "type": "Point", "coordinates": [ 121.5511815, 25.04608639 ] } },
{ "type": "Feature", "properties": { "data_time": "2024-02-06 18:31:59+08:00", "name": "安世藥局", "addr": "臺北市松山區南京東路四段１３３巷５弄９號", "wkb_geometry": "POINT (121.5555618 25.05213981)", "district": "松山區", "phone": "0227133405", "total_beds": 0.0 }, "geometry": { "type": "Point", "coordinates": [ 121.5555618, 25.05213981 ] } },
{ "type": "Feature", "properties": { "data_time": "2024-02-06 18:31:59+08:00", "name": "明一藥局", "addr": "臺北市松山區南京東路五段５９巷２８弄２５號１樓", "wkb_geometry": "POINT (121.5581679 25.05270413)", "district": "松山區", "phone": "0227691654", "total_beds": 0.0 }, "geometry": { "type": "Point", "coordinates": [ 121.5581679, 25.05270413 ] } },
{ "type": "Feature", "properties": { "data_time": "2024-02-06 18:31:59+08:00", "name": "傑安藥局", "addr": "臺北市松山區八德路二段４３７巷７弄８號１樓", "wkb_geometry": "POINT (121.547337 25.04913916)", "district": "松山區", "phone": "27524155", "total_beds": 0.0 }, "geometry": { "type": "Point", "coordinates": [ 121.547337, 25.04913916 ] } },
{ "type": "Feature", "properties": { "data_time": "2024-02-06 18:31:59+08:00", "name": "仁弘藥局", "addr": "臺北市松山區民生東路三段１１３巷２５弄６號１樓", "wkb_geometry": "POINT (121.5465855 25.05948486)", "district": "松山區", "phone": "0227136764", "total_beds": 0.0 }, "geometry": { "type": "Point", "coordinates": [ 121.5465855, 25.05948486 ] } },
{ "type": "Feature", "properties": { "data_time": "2024-02-06 18:31:59+08:00", "name": "益華藥局", "addr": "臺北市松山區民生東路五段１３８巷６號", "wkb_geometry": "POINT (121.5615464 25.05827432)", "district": "松山區", "phone": "0227624898", "total_beds": 0.0 }, "geometry": { "type": "Point", "coordinates": [ 121.5615464, 25.05827432 ] } },
{ "type": "Feature", "properties": { "data_time": "2024-02-06 18:31:59+08:00", "name": "德靈藥局", "addr": "臺北市松山區富錦街５４８號", "wkb_geometry": "POINT (121.5666733 25.06177521)", "district": "松山區", "phone": "0227646998", "total_beds": 0.0 }, "geometry": { "type": "Point", "coordinates": [ 121.5666733, 25.06177521 ] } },
{ "type": "Feature", "properties": { "data_time": "2024-02-06 18:31:59+08:00", "name": "合生藥局", "addr": "臺北市松山區南京東路五段１２３巷４５號１樓", "wkb_geometry": "POINT (121.5607477 25.05363801)", "district": "松山區", "phone": "27602932", "total_beds": 0.0 }, "geometry": { "type": "Point", "coordinates": [ 121.5607477, 25.05363801 ] } },
{ "type": "Feature", "properties": { "data_time": "2024-02-06 18:31:59+08:00", "name": "中崙五代全民藥局", "addr": "臺北市松山區延吉街７之２號１樓", "wkb_geometry": "POINT (121.5534991 25.04742353)", "district": "松山區", "phone": "25700079", "total_beds": 0.0 }, "geometry": { "type": "Point", "coordinates": [ 121.5534991, 25.04742353 ] } },
{ "type": "Feature", "properties": { "data_time": "2024-02-06 18:31:59+08:00", "name": "上允藥局", "addr": "臺北市松山區民生東路五段78號", "wkb_geometry": "POINT (121.5590485 25.05836364)", "district": "松山區", "phone": "0227696905", "total_beds": 0.0 }, "geometry": { "type": "Point", "coordinates": [ 121.5590485, 25.05836364 ] } },
{ "type": "Feature", "properties": { "data_time": "2024-02-06 18:31:59+08:00", "name": "建東大藥局", "addr": "臺北市松山區三民路９７號一樓", "wkb_geometry": "POINT (121.5633976 25.05723452)", "district": "松山區", "phone": "0227676237", "total_beds": 0.0 }, "geometry": { "type": "Point", "coordinates": [ 121.5633976, 25.05723452 ] } },
{ "type": "Feature", "properties": { "data_time": "2024-02-06 18:31:59+08:00", "name": "延壽藥局", "addr": "臺北市松山區延壽街３２７號", "wkb_geometry": "POINT (121.5603628 25.05678588)", "district": "松山區", "phone": "0227685159", "total_beds": 0.0 }, "geometry": { "type": "Point", "coordinates": [ 121.5603628, 25.05678588 ] } },
{ "type": "Feature", "properties": { "data_time": "2024-02-06 18:31:59+08:00", "name": "萬泰藥局", "addr": "臺北市松山區敦化北路222巷38號", "wkb_geometry": "POINT (121.5471033 25.05994298)", "district": "松山區", "phone": "27135891", "total_beds": 0.0 }, "geometry": { "type": "Point", "coordinates": [ 121.5471033, 25.05994298 ] } },
{ "type": "Feature", "properties": { "data_time": "2024-02-06 18:31:59+08:00", "name": "博荃藥局", "addr": "臺北市松山區敦化北路4巷51號", "wkb_geometry": "POINT (121.5447425 25.05006338)", "district": "松山區", "phone": "27316736", "total_beds": 0.0 }, "geometry": { "type": "Point", "coordinates": [ 121.5447425, 25.05006338 ] } },
{ "type": "Feature", "properties": { "data_time": "2024-02-06 18:31:59+08:00", "name": "家音藥局", "addr": "臺北市松山區民生東路五段73號", "wkb_geometry": "POINT (121.5584887 25.05870895)", "district": "松山區", "phone": "237652080", "total_beds": 0.0 }, "geometry": { "type": "Point", "coordinates": [ 121.5584887, 25.05870895 ] } },
{ "type": "Feature", "properties": { "data_time": "2024-02-06 18:31:59+08:00", "name": "中美藥局", "addr": "臺北市松山區富錦街531號", "wkb_geometry": "POINT (121.5654809 25.06128454)", "district": "松山區", "phone": "27627468", "total_beds": 0.0 }, "geometry": { "type": "Point", "coordinates": [ 121.5654809, 25.06128454 ] } },
{ "type": "Feature", "properties": { "data_time": "2024-02-06 18:31:59+08:00", "name": "惠登藥局", "addr": "臺北市松山區民生東路3段130巷34號", "wkb_geometry": "POINT (121.546113 25.05619819)", "district": "松山區", "phone": "225472432", "total_beds": 0.0 }, "geometry": { "type": "Point", "coordinates": [ 121.546113, 25.05619819 ] } },
{ "type": "Feature", "properties": { "data_time": "2024-02-06 18:31:59+08:00", "name": "松田藥局", "addr": "臺北市松山區延吉街9-6號", "wkb_geometry": "POINT (121.55355 25.04700689)", "district": "松山區", "phone": "25798005、0975577809", "total_beds": 0.0 }, "geometry": { "type": "Point", "coordinates": [ 121.55355, 25.04700689 ] } },
{ "type": "Feature", "properties": { "data_time": "2024-02-06 18:31:59+08:00", "name": "予志藥局", "addr": "臺北市松山區富錦街521號", "wkb_geometry": "POINT (121.5649443 25.06118636)", "district": "松山區", "phone": "227623522", "total_beds": 0.0 }, "geometry": { "type": "Point", "coordinates": [ 121.5649443, 25.06118636 ] } },
{ "type": "Feature", "properties": { "data_time": "2024-02-06 18:31:59+08:00", "name": "婕登藥局", "addr": "臺北市松山區八德路4段699號", "wkb_geometry": "POINT (121.5766443 25.05020698)", "district": "松山區", "phone": "27482893", "total_beds": 0.0 }, "geometry": { "type": "Point", "coordinates": [ 121.5766443, 25.05020698 ] } },
{ "type": "Feature", "properties": { "data_time": "2024-02-06 18:31:59+08:00", "name": "晨安藥局", "addr": "臺北市松山區八德路三段155巷20弄2號", "wkb_geometry": "POINT (121.5553264 25.0491374)", "district": "松山區", "phone": "25798460、0936818874", "total_beds": 0.0 }, "geometry": { "type": "Point", "coordinates": [ 121.5553264, 25.0491374 ] } },
{ "type": "Feature", "properties": { "data_time": "2024-02-06 18:31:59+08:00", "name": "銘德藥局", "addr": "臺北市松山區八德路2段366巷28號", "wkb_geometry": "POINT (121.545925 25.04724223)", "district": "松山區", "phone": "27511833", "total_beds": 0.0 }, "geometry": { "type": "Point", "coordinates": [ 121.545925, 25.04724223 ] } },
{ "type": "Feature", "properties": { "data_time": "2024-02-06 18:31:59+08:00", "name": "立康大藥局", "addr": "臺北市松山區八德路四段2之1號", "wkb_geometry": "POINT (121.5581109 25.04811673)", "district": "松山區", "phone": "27471749", "total_beds": 0.0 }, "geometry": { "type": "Point", "coordinates": [ 121.5581109, 25.04811673 ] } },
{ "type": "Feature", "properties": { "data_time": "2024-02-06 18:31:59+08:00", "name": "躍獅松和藥局", "addr": "臺北市松山區八德路四段666之1號", "wkb_geometry": "POINT (121.5760924 25.04979019)", "district": "松山區", "phone": "27492569", "total_beds": 0.0 }, "geometry": { "type": "Point", "coordinates": [ 121.5760924, 25.04979019 ] } },
{ "type": "Feature", "properties": { "data_time": "2024-02-06 18:31:59+08:00", "name": "京東藥局", "addr": "臺北市松山區南京東路五段272號", "wkb_geometry": "POINT (121.5669451 25.05113968)", "district": "松山區", "phone": "27679503", "total_beds": 0.0 }, "geometry": { "type": "Point", "coordinates": [ 121.5669451, 25.05113968 ] } },
{ "type": "Feature", "properties": { "data_time": "2024-02-06 18:31:59+08:00", "name": "晨新藥局", "addr": "臺北市松山區八德路四段91巷1之1號", "wkb_geometry": "POINT (121.5607609 25.04894395)", "district": "松山區", "phone": "-", "total_beds": 0.0 }, "geometry": { "type": "Point", "coordinates": [ 121.5607609, 25.04894395 ] } },
{ "type": "Feature", "properties": { "data_time": "2024-02-06 18:31:59+08:00", "name": "躍獅京華藥局", "addr": "臺北市松山區南京東路五段71號", "wkb_geometry": "POINT (121.5595616 25.05171475)", "district": "松山區", "phone": "227666508", "total_beds": 0.0 }, "geometry": { "type": "Point", "coordinates": [ 121.5595616, 25.05171475 ] } },
{ "type": "Feature", "properties": { "data_time": "2024-02-06 18:31:59+08:00", "name": "綠之家藥局", "addr": "臺北市松山區延壽街428號", "wkb_geometry": "POINT (121.5562168 25.05619701)", "district": "松山區", "phone": "-", "total_beds": 0.0 }, "geometry": { "type": "Point", "coordinates": [ 121.5562168, 25.05619701 ] } },
{ "type": "Feature", "properties": { "data_time": "2024-02-06 18:31:59+08:00", "name": "康采藥局", "addr": "臺北市松山區南京東路五段291巷17之2號", "wkb_geometry": "POINT (121.5662534 25.0523635)", "district": "松山區", "phone": "222578649", "total_beds": 0.0 }, "geometry": { "type": "Point", "coordinates": [ 121.5662534, 25.0523635 ] } },
{ "type": "Feature", "properties": { "data_time": "2024-02-06 18:31:59+08:00", "name": "唯康藥局", "addr": "臺北市松山區八德路3段211號", "wkb_geometry": "POINT (121.5566366 25.04819629)", "district": "松山區", "phone": "25775000", "total_beds": 0.0 }, "geometry": { "type": "Point", "coordinates": [ 121.5566366, 25.04819629 ] } },
{ "type": "Feature", "properties": { "data_time": "2024-02-06 18:31:59+08:00", "name": "台北長庚維康藥局", "addr": "臺北市松山區敦化北路199巷2弄5號1樓", "wkb_geometry": "POINT (121.5500336 25.05563366)", "district": "松山區", "phone": "27199386", "total_beds": 0.0 }, "geometry": { "type": "Point", "coordinates": [ 121.5500336, 25.05563366 ] } },
{ "type": "Feature", "properties": { "data_time": "2024-02-06 18:31:59+08:00", "name": "芝欣藥局", "addr": "臺北市松山區八德路3段148號", "wkb_geometry": "POINT (121.5548153 25.0479919)", "district": "松山區", "phone": "25706677", "total_beds": 0.0 }, "geometry": { "type": "Point", "coordinates": [ 121.5548153, 25.0479919 ] } },
{ "type": "Feature", "properties": { "data_time": "2024-02-06 18:31:59+08:00", "name": "立赫敦北藥局", "addr": "臺北市松山區敦化北路222巷20號", "wkb_geometry": "POINT (121.547743 25.05944652)", "district": "松山區", "phone": "227199277", "total_beds": 0.0 }, "geometry": { "type": "Point", "coordinates": [ 121.547743, 25.05944652 ] } },
{ "type": "Feature", "properties": { "data_time": "2024-02-06 18:31:59+08:00", "name": "健康活力藥師藥局", "addr": "臺北市松山區民生東路五段219號", "wkb_geometry": "POINT (121.5669297 25.05931013)", "district": "松山區", "phone": "227455556", "total_beds": 0.0 }, "geometry": { "type": "Point", "coordinates": [ 121.5669297, 25.05931013 ] } },
{ "type": "Feature", "properties": { "data_time": "2024-02-06 18:31:59+08:00", "name": "啄木鳥藥局", "addr": "臺北市松山區八德路四段209號(一、二層)、211號(一、二層)", "wkb_geometry": "POINT (121.5639568 25.04893714)", "district": "松山區", "phone": "27422413", "total_beds": 0.0 }, "geometry": { "type": "Point", "coordinates": [ 121.5639568, 25.04893714 ] } },
{ "type": "Feature", "properties": { "data_time": "2024-02-06 18:31:59+08:00", "name": "玖田藥局", "addr": "臺北市松山區八德路四段655號", "wkb_geometry": "POINT (121.5755287 25.05017841)", "district": "松山區", "phone": "227666578", "total_beds": 0.0 }, "geometry": { "type": "Point", "coordinates": [ 121.5755287, 25.05017841 ] } },
{ "type": "Feature", "properties": { "data_time": "2024-02-06 18:31:59+08:00", "name": "澄馨藥局", "addr": "臺北市松山區三民路37號", "wkb_geometry": "POINT (121.5635238 25.05580069)", "district": "松山區", "phone": "27589614", "total_beds": 0.0 }, "geometry": { "type": "Point", "coordinates": [ 121.5635238, 25.05580069 ] } },
{ "type": "Feature", "properties": { "data_time": "2024-02-06 18:31:59+08:00", "name": "一安正昇藥局", "addr": "臺北市松山區南京東路五段309號", "wkb_geometry": "POINT (121.5666661 25.05155363)", "district": "松山區", "phone": "227680993", "total_beds": 0.0 }, "geometry": { "type": "Point", "coordinates": [ 121.5666661, 25.05155363 ] } },
{ "type": "Feature", "properties": { "data_time": "2024-02-06 18:31:59+08:00", "name": "杏一延吉藥局", "addr": "臺北市松山區八德路3段74巷45弄1號1樓", "wkb_geometry": "POINT (121.5527172 25.04624327)", "district": "松山區", "phone": "25798450", "total_beds": 0.0 }, "geometry": { "type": "Point", "coordinates": [ 121.5527172, 25.04624327 ] } },
{ "type": "Feature", "properties": { "data_time": "2024-02-06 18:31:59+08:00", "name": "新德大藥局", "addr": "臺北市松山區饒河街204號", "wkb_geometry": "POINT (121.5770352 25.05074271)", "district": "松山區", "phone": "27474473", "total_beds": 0.0 }, "geometry": { "type": "Point", "coordinates": [ 121.5770352, 25.05074271 ] } },
{ "type": "Feature", "properties": { "data_time": "2024-02-06 18:31:59+08:00", "name": "光點延新藥局", "addr": "臺北市松山區延壽街101號", "wkb_geometry": "POINT (121.5659705 25.05716171)", "district": "松山區", "phone": "27667795", "total_beds": 0.0 }, "geometry": { "type": "Point", "coordinates": [ 121.5659705, 25.05716171 ] } },
{ "type": "Feature", "properties": { "data_time": "2024-02-06 18:31:59+08:00", "name": "杏一台北長庚藥局", "addr": "臺北市松山區敦化北路199巷2弄3號", "wkb_geometry": "POINT (121.5500378 25.05568488)", "district": "松山區", "phone": "225149463", "total_beds": 0.0 }, "geometry": { "type": "Point", "coordinates": [ 121.5500378, 25.05568488 ] } },
{ "type": "Feature", "properties": { "data_time": "2024-02-06 18:31:59+08:00", "name": "立赫民生藥局", "addr": "臺北市松山區民生東路四段72號", "wkb_geometry": "POINT (121.5524163 25.0578685)", "district": "松山區", "phone": "27139200", "total_beds": 0.0 }, "geometry": { "type": "Point", "coordinates": [ 121.5524163, 25.0578685 ] } },
{ "type": "Feature", "properties": { "data_time": "2024-02-06 18:31:59+08:00", "name": "安禾大藥局", "addr": "臺北市松山區撫遠街382號", "wkb_geometry": "POINT (121.5656249 25.06442948)", "district": "松山區", "phone": "227602952", "total_beds": 0.0 }, "geometry": { "type": "Point", "coordinates": [ 121.5656249, 25.06442948 ] } },
{ "type": "Feature", "properties": { "data_time": "2024-02-06 18:31:59+08:00", "name": "巧心藥局", "addr": "臺北市松山區八德路3段12巷57弄39之3號1樓", "wkb_geometry": "POINT (121.5521399 25.04567413)", "district": "松山區", "phone": "25703728", "total_beds": 0.0 }, "geometry": { "type": "Point", "coordinates": [ 121.5521399, 25.04567413 ] } },
{ "type": "Feature", "properties": { "data_time": "2024-02-06 18:31:59+08:00", "name": "慶昌藥局", "addr": "臺北市松山區延吉街29號1樓", "wkb_geometry": "POINT (121.5537055 25.04594889)", "district": "松山區", "phone": "25770820", "total_beds": 0.0 }, "geometry": { "type": "Point", "coordinates": [ 121.5537055, 25.04594889 ] } },
{ "type": "Feature", "properties": { "data_time": "2024-02-06 18:31:59+08:00", "name": "順儷中崙藥局", "addr": "臺北市松山區八德路3段74巷48號1樓", "wkb_geometry": "POINT (121.5524496 25.04684933)", "district": "松山區", "phone": "25796900", "total_beds": 0.0 }, "geometry": { "type": "Point", "coordinates": [ 121.5524496, 25.04684933 ] } },
{ "type": "Feature", "properties": { "data_time": "2024-02-06 18:31:59+08:00", "name": "家育藥局", "addr": "臺北市松山區民生東路5段216號1樓", "wkb_geometry": "POINT (121.5650468 25.0588484)", "district": "松山區", "phone": "227678639", "total_beds": 0.0 }, "geometry": { "type": "Point", "coordinates": [ 121.5650468, 25.0588484 ] } },
{ "type": "Feature", "properties": { "data_time": "2024-02-06 18:31:59+08:00", "name": "佑翔藥局", "addr": "臺北市松山區民生東路5段95號1樓", "wkb_geometry": "POINT (121.5596903 25.05880508)", "district": "松山區", "phone": "287875070", "total_beds": 0.0 }, "geometry": { "type": "Point", "coordinates": [ 121.5596903, 25.05880508 ] } },
{ "type": "Feature", "properties": { "data_time": "2024-02-06 18:31:59+08:00", "name": "民生盛康藥局", "addr": "臺北市松山區民生東路5段204號1樓", "wkb_geometry": "POINT (121.5647695 25.0582584)", "district": "松山區", "phone": "227460758", "total_beds": 0.0 }, "geometry": { "type": "Point", "coordinates": [ 121.5647695, 25.0582584 ] } },
{ "type": "Feature", "properties": { "data_time": "2024-02-06 18:31:59+08:00", "name": "杏一台北台安藥局", "addr": "臺北市松山區八德路2段399號1樓", "wkb_geometry": "POINT (121.5465282 25.04832767)", "district": "松山區", "phone": "87728295", "total_beds": 0.0 }, "geometry": { "type": "Point", "coordinates": [ 121.5465282, 25.04832767 ] } },
{ "type": "Feature", "properties": { "data_time": "2024-02-06 18:31:59+08:00", "name": "全欣藥局", "addr": "臺北市松山區復興北路73號2樓", "wkb_geometry": "POINT (121.5442384 25.05105069)", "district": "松山區", "phone": "87729066", "total_beds": 0.0 }, "geometry": { "type": "Point", "coordinates": [ 121.5442384, 25.05105069 ] } },
{ "type": "Feature", "properties": { "data_time": "2024-02-06 18:31:59+08:00", "name": "富景藥局", "addr": "臺北市松山區三民路145號1樓", "wkb_geometry": "POINT (121.5630972 25.06078504)", "district": "松山區", "phone": "27455666", "total_beds": 0.0 }, "geometry": { "type": "Point", "coordinates": [ 121.5630972, 25.06078504 ] } },
{ "type": "Feature", "properties": { "data_time": "2024-02-06 18:31:59+08:00", "name": "駿俏藥局", "addr": "臺北市松山區八德路2段397號1樓", "wkb_geometry": "POINT (121.5464705 25.04832788)", "district": "松山區", "phone": "287728085", "total_beds": 0.0 }, "geometry": { "type": "Point", "coordinates": [ 121.5464705, 25.04832788 ] } },
{ "type": "Feature", "properties": { "data_time": "2024-02-06 18:31:59+08:00", "name": "佑全松山南京東藥局", "addr": "臺北市松山區南京東路5段291巷7號1樓", "wkb_geometry": "POINT (121.5662465 25.05200522)", "district": "松山區", "phone": "227687807", "total_beds": 0.0 }, "geometry": { "type": "Point", "coordinates": [ 121.5662465, 25.05200522 ] } },
{ "type": "Feature", "properties": { "data_time": "2024-02-06 18:31:59+08:00", "name": "豐澤藥局", "addr": "臺北市松山區南京東路3段269巷6之9號(1樓)", "wkb_geometry": "POINT (121.5575876 25.0517827)", "district": "松山區", "phone": "227169636", "total_beds": 0.0 }, "geometry": { "type": "Point", "coordinates": [ 121.5575876, 25.0517827 ] } },
{ "type": "Feature", "properties": { "data_time": "2024-02-06 18:31:59+08:00", "name": "南京春天藥局", "addr": "臺北市松山區南京東路4段139號(1樓)", "wkb_geometry": "POINT (121.555351 25.0518433)", "district": "松山區", "phone": "27186155", "total_beds": 0.0 }, "geometry": { "type": "Point", "coordinates": [ 121.555351, 25.0518433 ] } },
{ "type": "Feature", "properties": { "data_time": "2024-02-06 18:31:59+08:00", "name": "美仁藥局", "addr": "臺北市松山區健康路5之1號1樓", "wkb_geometry": "POINT (121.5524947 25.0525084)", "district": "松山區", "phone": "227166112", "total_beds": 0.0 }, "geometry": { "type": "Point", "coordinates": [ 121.5524947, 25.0525084 ] } },
{ "type": "Feature", "properties": { "data_time": "2024-02-06 18:31:59+08:00", "name": "躍獅敦北藥局", "addr": "臺北市松山區民生東路4段80巷5號(1樓)", "wkb_geometry": "POINT (121.5531171 25.0571208)", "district": "松山區", "phone": "227155691", "total_beds": 0.0 }, "geometry": { "type": "Point", "coordinates": [ 121.5531171, 25.0571208 ] } },
{ "type": "Feature", "properties": { "data_time": "2024-02-06 18:31:59+08:00", "name": "誠康中西藥局", "addr": "臺北市松山區南京東路5段59巷31弄43號1樓", "wkb_geometry": "POINT (121.5607228 25.05345802)", "district": "松山區", "phone": "227619679", "total_beds": 0.0 }, "geometry": { "type": "Point", "coordinates": [ 121.5607228, 25.05345802 ] } },
{ "type": "Feature", "properties": { "data_time": "2024-02-06 18:31:59+08:00", "name": "大樹松山藥局", "addr": "臺北市松山區民生東路5段107號1樓", "wkb_geometry": "POINT (121.5601395 25.05877584)", "district": "松山區", "phone": "27562226", "total_beds": 0.0 }, "geometry": { "type": "Point", "coordinates": [ 121.5601395, 25.05877584 ] } },
{ "type": "Feature", "properties": { "data_time": "2024-02-06 18:31:59+08:00", "name": "康是美建華藥局", "addr": "臺北市松山區南京東路5段1號1樓", "wkb_geometry": "POINT (121.557434 25.0517706)", "district": "松山區", "phone": "27607595", "total_beds": 0.0 }, "geometry": { "type": "Point", "coordinates": [ 121.557434, 25.0517706 ] } },
{ "type": "Feature", "properties": { "data_time": "2024-02-06 18:31:59+08:00", "name": "康麗藥局", "addr": "臺北市松山區南京東路3段303巷20號(1樓)", "wkb_geometry": "POINT (121.546856 25.0537765)", "district": "松山區", "phone": "227174117", "total_beds": 0.0 }, "geometry": { "type": "Point", "coordinates": [ 121.546856, 25.0537765 ] } },
{ "type": "Feature", "properties": { "data_time": "2024-02-06 18:31:59+08:00", "name": "達昌健康藥局", "addr": "臺北市松山區健康路100號(1樓)", "wkb_geometry": "POINT (121.5549068 25.0533509)", "district": "松山區", "phone": "227125220", "total_beds": 0.0 }, "geometry": { "type": "Point", "coordinates": [ 121.5549068, 25.0533509 ] } },
{ "type": "Feature", "properties": { "data_time": "2024-02-06 18:31:59+08:00", "name": "立健美中西藥局", "addr": "臺北市松山區民權東路3段106巷1號1樓", "wkb_geometry": "POINT (121.5449855 25.06176721)", "district": "松山區", "phone": "25473929", "total_beds": 0.0 }, "geometry": { "type": "Point", "coordinates": [ 121.5449855, 25.06176721 ] } },
{ "type": "Feature", "properties": { "data_time": "2024-02-06 18:31:59+08:00", "name": "宏恩藥局", "addr": "臺北市大安區大安路一段一八一號一樓", "wkb_geometry": "POINT (121.5461126 25.03618795)", "district": "大安區", "phone": "0227000956", "total_beds": 0.0 }, "geometry": { "type": "Point", "coordinates": [ 121.5461126, 25.03618795 ] } },
{ "type": "Feature", "properties": { "data_time": "2024-02-06 18:31:59+08:00", "name": "靜園藥局", "addr": "臺北市大安區和平東路2段118巷57之1號", "wkb_geometry": "POINT (121.5429214 25.02254142)", "district": "大安區", "phone": "0227336390", "total_beds": 0.0 }, "geometry": { "type": "Point", "coordinates": [ 121.5429214, 25.02254142 ] } },
{ "type": "Feature", "properties": { "data_time": "2024-02-06 18:31:59+08:00", "name": "延吉大藥局", "addr": "臺北市大安區延吉街一五三號一樓", "wkb_geometry": "POINT (121.5547915 25.04065739)", "district": "大安區", "phone": "0227819227", "total_beds": 0.0 }, "geometry": { "type": "Point", "coordinates": [ 121.5547915, 25.04065739 ] } },
{ "type": "Feature", "properties": { "data_time": "2024-02-06 18:31:59+08:00", "name": "北陸藥局", "addr": "臺北市大安區和平東路三段二七八號一樓", "wkb_geometry": "POINT (121.5558664 25.02099834)", "district": "大安區", "phone": "0227323594", "total_beds": 0.0 }, "geometry": { "type": "Point", "coordinates": [ 121.5558664, 25.02099834 ] } },
{ "type": "Feature", "properties": { "data_time": "2024-02-06 18:31:59+08:00", "name": "杏友藥局", "addr": "臺北市大安區復興南路二段一五一巷二五號", "wkb_geometry": "POINT (121.5435516 25.027216)", "district": "大安區", "phone": "0227079451", "total_beds": 0.0 }, "geometry": { "type": "Point", "coordinates": [ 121.5435516, 25.027216 ] } },
{ "type": "Feature", "properties": { "data_time": "2024-02-06 18:31:59+08:00", "name": "燕福藥局", "addr": "臺北市大安區羅斯福路三段283巷14弄14號之3", "wkb_geometry": "POINT (121.5326827 25.0182474)", "district": "大安區", "phone": "0223627307", "total_beds": 0.0 }, "geometry": { "type": "Point", "coordinates": [ 121.5326827, 25.0182474 ] } },
{ "type": "Feature", "properties": { "data_time": "2024-02-06 18:31:59+08:00", "name": "龍護大藥局", "addr": "臺北市大安區大安路一段二二四巷七號一樓", "wkb_geometry": "POINT (121.5462229 25.0366162)", "district": "大安區", "phone": "0223250686", "total_beds": 0.0 }, "geometry": { "type": "Point", "coordinates": [ 121.5462229, 25.0366162 ] } },
{ "type": "Feature", "properties": { "data_time": "2024-02-06 18:31:59+08:00", "name": "寶德藥局", "addr": "臺北市大安區樂利路一０五號一樓", "wkb_geometry": "POINT (121.5523893 25.02512378)", "district": "大安區", "phone": "0227364240", "total_beds": 0.0 }, "geometry": { "type": "Point", "coordinates": [ 121.5523893, 25.02512378 ] } },
{ "type": "Feature", "properties": { "data_time": "2024-02-06 18:31:59+08:00", "name": "泰佑藥局", "addr": "臺北市大安區安和路二段七二號一樓", "wkb_geometry": "POINT (121.5517332 25.03010716)", "district": "大安區", "phone": "0227056841", "total_beds": 0.0 }, "geometry": { "type": "Point", "coordinates": [ 121.5517332, 25.03010716 ] } },
{ "type": "Feature", "properties": { "data_time": "2024-02-06 18:31:59+08:00", "name": "杏安堂藥局", "addr": "臺北市大安區忠孝東路四段七七巷三０號一樓", "wkb_geometry": "POINT (121.5530879 25.042535)", "district": "大安區", "phone": "0227517636", "total_beds": 0.0 }, "geometry": { "type": "Point", "coordinates": [ 121.5530879, 25.042535 ] } },
{ "type": "Feature", "properties": { "data_time": "2024-02-06 18:31:59+08:00", "name": "四維藥局", "addr": "臺北市大安區復興南路二段一五一巷四三號一樓", "wkb_geometry": "POINT (121.5435516 25.027216)", "district": "大安區", "phone": "0227094222", "total_beds": 0.0 }, "geometry": { "type": "Point", "coordinates": [ 121.5435516, 25.027216 ] } },
{ "type": "Feature", "properties": { "data_time": "2024-02-06 18:31:59+08:00", "name": "羅斯福藥局", "addr": "臺北市大安區羅斯福路3段283巷9弄3號", "wkb_geometry": "POINT (121.5312952 25.01903094)", "district": "大安區", "phone": "0223699606、0223634302", "total_beds": 0.0 }, "geometry": { "type": "Point", "coordinates": [ 121.5312952, 25.01903094 ] } },
{ "type": "Feature", "properties": { "data_time": "2024-02-06 18:31:59+08:00", "name": "赫慶藥局", "addr": "臺北市大安區瑞安街二０八巷一一弄五號一樓", "wkb_geometry": "POINT (121.5416416 25.0288893)", "district": "大安區", "phone": "0227063497", "total_beds": 0.0 }, "geometry": { "type": "Point", "coordinates": [ 121.5416416, 25.0288893 ] } },
{ "type": "Feature", "properties": { "data_time": "2024-02-06 18:31:59+08:00", "name": "大興藥局", "addr": "臺北市大安區通化街三九巷五０弄一五號一樓", "wkb_geometry": "POINT (121.5544114 25.0292561)", "district": "大安區", "phone": "0227053369", "total_beds": 0.0 }, "geometry": { "type": "Point", "coordinates": [ 121.5544114, 25.0292561 ] } },
{ "type": "Feature", "properties": { "data_time": "2024-02-06 18:31:59+08:00", "name": "永誠藥局", "addr": "臺北市大安區忠孝東路4段216巷25之1號", "wkb_geometry": "POINT (121.5530635 25.0399669)", "district": "大安區", "phone": "0227520273", "total_beds": 0.0 }, "geometry": { "type": "Point", "coordinates": [ 121.5530635, 25.0399669 ] } },
{ "type": "Feature", "properties": { "data_time": "2024-02-06 18:31:59+08:00", "name": "正昌藥局", "addr": "臺北市大安區通化街三八巷九號一樓", "wkb_geometry": "POINT (121.5544114 25.0292561)", "district": "大安區", "phone": "0227540070", "total_beds": 0.0 }, "geometry": { "type": "Point", "coordinates": [ 121.5544114, 25.0292561 ] } },
{ "type": "Feature", "properties": { "data_time": "2024-02-06 18:31:59+08:00", "name": "建如藥局", "addr": "臺北市大安區和平東路三段２２８巷１１號１樓", "wkb_geometry": "POINT (121.5543423 25.02174207)", "district": "大安區", "phone": "0227331456", "total_beds": 0.0 }, "geometry": { "type": "Point", "coordinates": [ 121.5543423, 25.02174207 ] } },
{ "type": "Feature", "properties": { "data_time": "2024-02-06 18:31:59+08:00", "name": "生百藥局", "addr": "臺北市大安區臨江街１２４號", "wkb_geometry": "POINT (121.5538779 25.03023526)", "district": "大安區", "phone": "0227371011", "total_beds": 0.0 }, "geometry": { "type": "Point", "coordinates": [ 121.5538779, 25.03023526 ] } },
{ "type": "Feature", "properties": { "data_time": "2024-02-06 18:31:59+08:00", "name": "台安藥局", "addr": "臺北市大安區和平東路二段三五三號一樓", "wkb_geometry": "POINT (121.546163 25.02486892)", "district": "大安區", "phone": "27549099", "total_beds": 0.0 }, "geometry": { "type": "Point", "coordinates": [ 121.546163, 25.02486892 ] } },
{ "type": "Feature", "properties": { "data_time": "2024-02-06 18:31:59+08:00", "name": "生光藥局", "addr": "臺北市大安區忠孝東路三段二四八巷二號", "wkb_geometry": "POINT (121.5465448 25.0443684)", "district": "大安區", "phone": "27780862", "total_beds": 0.0 }, "geometry": { "type": "Point", "coordinates": [ 121.5465448, 25.0443684 ] } },
{ "type": "Feature", "properties": { "data_time": "2024-02-06 18:31:59+08:00", "name": "千福藥局", "addr": "臺北市大安區忠孝東路四段四十五號地下二樓", "wkb_geometry": "POINT (121.5539181 25.0414821)", "district": "大安區", "phone": "27403767", "total_beds": 0.0 }, "geometry": { "type": "Point", "coordinates": [ 121.5539181, 25.0414821 ] } },
{ "type": "Feature", "properties": { "data_time": "2024-02-06 18:31:59+08:00", "name": "永康藥局", "addr": "臺北市大安區麗水街6之2號", "wkb_geometry": "POINT (121.5289946 25.03289118)", "district": "大安區", "phone": "23279362", "total_beds": 0.0 }, "geometry": { "type": "Point", "coordinates": [ 121.5289946, 25.03289118 ] } },
{ "type": "Feature", "properties": { "data_time": "2024-02-06 18:31:59+08:00", "name": "祥瑞中西大藥局", "addr": "臺北市大安區復興南路1段107巷49號", "wkb_geometry": "POINT (121.5460607 25.0436955)", "district": "大安區", "phone": "27752551", "total_beds": 0.0 }, "geometry": { "type": "Point", "coordinates": [ 121.5460607, 25.0436955 ] } },
{ "type": "Feature", "properties": { "data_time": "2024-02-06 18:31:59+08:00", "name": "世中欣藥局", "addr": "臺北市大安區永康街2巷8號", "wkb_geometry": "POINT (121.5294068 25.03315405)", "district": "大安區", "phone": "23938947", "total_beds": 0.0 }, "geometry": { "type": "Point", "coordinates": [ 121.5294068, 25.03315405 ] } },
{ "type": "Feature", "properties": { "data_time": "2024-02-06 18:31:59+08:00", "name": "加豐藥局", "addr": "臺北市大安區忠孝東路三段216巷3弄1號1樓", "wkb_geometry": "POINT (121.540265 25.04125473)", "district": "大安區", "phone": "27219678", "total_beds": 0.0 }, "geometry": { "type": "Point", "coordinates": [ 121.540265, 25.04125473 ] } },